
[
  {
    "MIGX_id": "1",
    "company": "Bakery Combinations Australia Pty Ltd.",
    "address": "Unit 58, 51 Leighton Place",
    "address_2": "",
    "zipcode": "NSW 2077",
    "city": "HORNSBY",
    "country": "AU",
    "phone": "+61 294 829 662",
    "website": "http:\/\/www.bakerycombinations.com.au",
    "latlong": {
      "street": "",
      "housenumber": "",
      "zipcode": "",
      "city": "",
      "state": "",
      "country": "",
      "latitude": "-33.694639",
      "longitude": "151.114041"
    },
    "marker": "Residental"
  },
  {
    "company": "Consolidated Fire and Steam Pty Ltd.",
    "address": "32 Research Drive VIC",
    "address_2": "",
    "zipcode": "VIC 3136",
    "city": "CROYDON SOUTH",
    "country": "AU",
    "phone": "+61 387 616 677",
    "website": "http:\/\/www.confas.com.au",
    "MIGX_id": "2",
    "latlong": {
      "street": "",
      "housenumber": "",
      "zipcode": "",
      "city": "",
      "state": "",
      "country": "",
      "latitude": "-37.817077",
      "longitude": "145.294108"
    }
  },
  {
    "company": "ABC Interieur nv",
    "address": "Krommebeekstraat 19",
    "address_2": "",
    "zipcode": "8930",
    "city": "MENEN",
    "country": "BE",
    "phone": "+32 564 231 66",
    "website": "http:\/\/www.abc-haarden.be",
    "MIGX_id": "3",
    "latlong": {
      "street": "",
      "housenumber": "",
      "zipcode": "",
      "city": "",
      "state": "",
      "country": "",
      "latitude": "50.813987",
      "longitude": "3.1279919"
    }
  },
  {
    "company": "Antec bvba",
    "address": "Boterhamvaartweg 2, Unit 11",
    "address_2": "",
    "zipcode": "2030",
    "city": "ANTWERPEN",
    "country": "BE",
    "phone": "+32 354 100 09",
    "website": "http:\/\/www.antec.be",
    "MIGX_id": "4",
    "latlong": {
      "street": "",
      "housenumber": "",
      "zipcode": "",
      "city": "",
      "state": "",
      "country": "",
      "latitude": "51.2527941",
      "longitude": "4.4106839"
    }
  },
  {
    "company": "Ballet Kachels and Inbouwhaarden",
    "address": "Kermtstraat 2",
    "address_2": "",
    "zipcode": "3510",
    "city": "KERMT-HASSELT",
    "country": "BE",
    "phone": "+32 118 598 00",
    "website": "http:\/\/www.ballet-kermt.be",
    "MIGX_id": "5",
    "latlong": {
      "street": "",
      "housenumber": "",
      "zipcode": "",
      "city": "",
      "state": "",
      "country": "",
      "latitude": "50.9472106",
      "longitude": "5.2533048"
    }
  },
  {
    "company": "Bax-Vloemans bvba",
    "address": "Weeldestraat 158",
    "address_2": "",
    "zipcode": "2381",
    "city": "WEELDE",
    "country": "BE",
    "phone": "+32 146 558 87",
    "website": "http:\/\/www.bax-vloemans.be",
    "MIGX_id": "6",
    "latlong": {
      "street": "",
      "housenumber": "",
      "zipcode": "",
      "city": "",
      "state": "",
      "country": "",
      "latitude": "51.4165044",
      "longitude": "5.0152236"
    }
  },
  {
    "company": "bvba Schootec",
    "address": "Industriepark 22",
    "address_2": "",
    "zipcode": "3290",
    "city": "DIEST",
    "country": "BE",
    "phone": "+32 133 535 00",
    "website": "http:\/\/www.schootec.be",
    "MIGX_id": "7",
    "latlong": {
      "street": "",
      "housenumber": "",
      "zipcode": "",
      "city": "",
      "state": "",
      "country": "",
      "latitude": "50.9634797",
      "longitude": "5.0734398"
    }
  },
  {
    "company": "Carnoy verkoop nv",
    "address": "Afrikalaan 203",
    "address_2": "",
    "zipcode": "9000",
    "city": "GENT",
    "country": "BE",
    "phone": "+32 925 555 55",
    "website": "http:\/\/www.carnoy.be",
    "MIGX_id": "8",
    "latlong": {
      "street": "",
      "housenumber": "",
      "zipcode": "",
      "city": "",
      "state": "",
      "country": "",
      "latitude": "51.0707244",
      "longitude": "3.737522"
    }
  },
  {
    "company": "Cosyflame Debatra bvba",
    "address": "Keistraat 127",
    "address_2": "",
    "zipcode": "9840",
    "city": "DE PINTE",
    "country": "BE",
    "phone": "+32 922 280 84",
    "website": "http:\/\/www.cosyflame.be",
    "MIGX_id": "9",
    "latlong": {
      "street": "",
      "housenumber": "",
      "zipcode": "",
      "city": "",
      "state": "",
      "country": "",
      "latitude": "51.002851",
      "longitude": "3.645248"
    }
  },
  {
    "company": "Dalemans Exclusief",
    "address": "Rijksweg 589",
    "address_2": "",
    "zipcode": "3630",
    "city": "MAASMECHELEN",
    "country": "BE",
    "phone": "+32 897 625 49",
    "website": "http:\/\/www.dalemans.be",
    "MIGX_id": "10",
    "latlong": {
      "street": "",
      "housenumber": "",
      "zipcode": "",
      "city": "",
      "state": "",
      "country": "",
      "latitude": "50.9406752",
      "longitude": "5.6923897"
    }
  },
  {
    "company": "De Puydt nv",
    "address": "Finlandstraat 19",
    "address_2": "",
    "zipcode": "9940",
    "city": "EVERGEM",
    "country": "BE",
    "phone": "+32 922 625 01",
    "website": "http:\/\/www.depuydthaarden.be",
    "MIGX_id": "11",
    "latlong": {
      "street": "",
      "housenumber": "",
      "zipcode": "",
      "city": "",
      "state": "",
      "country": "",
      "latitude": "51.1356689",
      "longitude": "3.744567"
    }
  },
  {
    "company": "De Rudder",
    "address": "Kemzekestraat 31",
    "address_2": "",
    "zipcode": "9190",
    "city": "KEMZEKE",
    "country": "BE",
    "phone": "+32 377 979 72",
    "website": "http:\/\/www.de-rudder.be",
    "MIGX_id": "12",
    "latlong": {
      "street": "",
      "housenumber": "",
      "zipcode": "",
      "city": "",
      "state": "",
      "country": "",
      "latitude": "51.2100337",
      "longitude": "4.0821011"
    }
  },
  {
    "company": "Eeckhout bvba",
    "address": "Zwaaikomstraat 16",
    "address_2": "",
    "zipcode": "8800",
    "city": "ROESELARE",
    "country": "BE",
    "phone": "+32 512 257 25",
    "website": "http:\/\/www.eeckhoutbvba.be",
    "MIGX_id": "13",
    "latlong": {
      "street": "",
      "housenumber": "",
      "zipcode": "",
      "city": "",
      "state": "",
      "country": "",
      "latitude": "50.9502383",
      "longitude": "3.1542467"
    }
  },
  {
    "company": "Exclusieve Haarden Dani\u00ebls bvba",
    "address": "Gruitroderkiezel 53",
    "address_2": "",
    "zipcode": "3960",
    "city": "BREE",
    "country": "BE",
    "phone": "+32 894 612 79",
    "website": "http:\/\/www.danielskachels.be",
    "MIGX_id": "14",
    "latlong": {
      "street": "",
      "housenumber": "",
      "zipcode": "",
      "city": "",
      "state": "",
      "country": "",
      "latitude": "51.132742",
      "longitude": "5.5927395"
    }
  },
  {
    "company": "Flam nv V.F.M.",
    "address": "Fabriekstraat 34",
    "address_2": "",
    "zipcode": "3800",
    "city": "SINT-TRUIDEN",
    "country": "BE",
    "phone": "+32 116 823 38",
    "website": "http:\/\/www.flam.be",
    "MIGX_id": "15",
    "latlong": {
      "street": "",
      "housenumber": "",
      "zipcode": "",
      "city": "",
      "state": "",
      "country": "",
      "latitude": "50.8163636",
      "longitude": "5.1716863"
    }
  },
  {
    "company": "Gijsens bvba",
    "address": "Biesemstraat 16",
    "address_2": "",
    "zipcode": "3454",
    "city": "RUMMEN",
    "country": "BE",
    "phone": "+32 115 831 25",
    "website": "http:\/\/www.gijsens.be",
    "MIGX_id": "16",
    "latlong": {
      "street": "",
      "housenumber": "",
      "zipcode": "",
      "city": "",
      "state": "",
      "country": "",
      "latitude": "50.8973823",
      "longitude": "5.158398"
    }
  },
  {
    "company": "Hekon bvba",
    "address": "Wolfstee 18",
    "address_2": "",
    "zipcode": "2200",
    "city": "HERENTALS",
    "country": "BE",
    "phone": "+32 142 350 41",
    "website": "http:\/\/www.hekon.be",
    "MIGX_id": "17",
    "latlong": {
      "street": "",
      "housenumber": "",
      "zipcode": "",
      "city": "",
      "state": "",
      "country": "",
      "latitude": "51.1662383",
      "longitude": "4.7956818"
    }
  },
  {
    "company": "Ignis - bvba G. Bontemps",
    "address": "Nieuwe Steenweg 12b",
    "address_2": "",
    "zipcode": "9810",
    "city": "EKE-NAZARETH",
    "country": "BE",
    "phone": "+32 938 485 98",
    "website": "http:\/\/www.vuren.be",
    "MIGX_id": "18",
    "latlong": {
      "street": "",
      "housenumber": "",
      "zipcode": "",
      "city": "",
      "state": "",
      "country": "",
      "latitude": "50.9492119",
      "longitude": "3.6406255"
    }
  },
  {
    "company": "Jid\u00e9",
    "address": "Rue de Meuneries 11",
    "address_2": "",
    "zipcode": "4650",
    "city": "HERVE",
    "country": "BE",
    "phone": "+32 496 226 412",
    "website": "http:\/\/www.jide.be",
    "MIGX_id": "19",
    "latlong": {
      "street": "",
      "housenumber": "",
      "zipcode": "",
      "city": "",
      "state": "",
      "country": "",
      "latitude": "50.6419178",
      "longitude": "5.7886806"
    }
  },
  {
    "company": "Jos de Backer Haarden and Kachels",
    "address": "Antwerpsesteenweg 77",
    "address_2": "",
    "zipcode": "2840",
    "city": "RUMST",
    "country": "BE",
    "phone": "+32 153 118 17",
    "website": "http:\/\/www.debackerjos.be",
    "MIGX_id": "20",
    "latlong": {
      "street": "",
      "housenumber": "",
      "zipcode": "",
      "city": "",
      "state": "",
      "country": "",
      "latitude": "51.0937133",
      "longitude": "4.4511655"
    }
  },
  {
    "company": "M-Design Benelux",
    "address": "Torhoutsesteenweg 222a",
    "address_2": "",
    "zipcode": "8210",
    "city": "ZEDELGEM-BRUGGE",
    "country": "BE",
    "phone": "+32 508 206 52",
    "website": "http:\/\/www.m-design.be",
    "MIGX_id": "21",
    "latlong": {
      "street": "",
      "housenumber": "",
      "zipcode": "",
      "city": "",
      "state": "",
      "country": "",
      "latitude": "51.1221687",
      "longitude": "3.1510708"
    }
  },
  {
    "company": "Molimex Therm S.A. Div. of Nortek global HVAC Belgium",
    "address": "Excelsiorlaan 45",
    "address_2": "",
    "zipcode": "1930",
    "city": "ZAVENTEM",
    "country": "BE",
    "phone": "+32 271 501 30",
    "website": "http:\/\/www.molimextherm.com",
    "MIGX_id": "22",
    "latlong": {
      "street": "",
      "housenumber": "",
      "zipcode": "",
      "city": "",
      "state": "",
      "country": "",
      "latitude": "50.8836444",
      "longitude": "4.4543386"
    }
  },
  {
    "company": "Mortier bvba",
    "address": "Rietstraat 56",
    "address_2": "",
    "zipcode": "8430",
    "city": "MIDDELKERKE",
    "country": "BE",
    "phone": "+32 593 003 47",
    "website": "http:\/\/www.mortier-middelkerke.be",
    "MIGX_id": "23",
    "latlong": {
      "street": "",
      "housenumber": "",
      "zipcode": "",
      "city": "",
      "state": "",
      "country": "",
      "latitude": "51.1914343",
      "longitude": "2.8394794"
    }
  },
  {
    "company": "OOSTERBOSCH bvba",
    "address": "Kapittelstraat 4",
    "address_2": "",
    "zipcode": "3740",
    "city": "BILZEN",
    "country": "BE",
    "phone": "+32 894 123 68",
    "website": "http:\/\/www.oosterbosch.be",
    "MIGX_id": "24",
    "latlong": {
      "street": "",
      "housenumber": "",
      "zipcode": "",
      "city": "",
      "state": "",
      "country": "",
      "latitude": "50.8699296",
      "longitude": "5.5291313"
    }
  },
  {
    "company": "Roger Van Dale bvba",
    "address": "Sint-Pieterskaai 2",
    "address_2": "",
    "zipcode": "8000",
    "city": "BRUGGE",
    "country": "BE",
    "phone": "+32 503 531 46",
    "website": "http:\/\/www.rogervandale.com",
    "MIGX_id": "25",
    "latlong": {
      "street": "",
      "housenumber": "",
      "zipcode": "",
      "city": "",
      "state": "",
      "country": "",
      "latitude": "51.2196219",
      "longitude": "3.2095206"
    }
  },
  {
    "company": "Sierschouwen Bouvry",
    "address": "Brugsestraat 237",
    "address_2": "",
    "zipcode": "8210",
    "city": "ZEDELGEM",
    "country": "BE",
    "phone": "+32 505 461 91",
    "website": "http:\/\/www.sierschouwenbouvry.be",
    "MIGX_id": "26",
    "latlong": {
      "street": "",
      "housenumber": "",
      "zipcode": "",
      "city": "",
      "state": "",
      "country": "",
      "latitude": "51.1299969",
      "longitude": "3.1559795"
    }
  },
  {
    "company": "Standard AHZ",
    "address": "Tiensesteenweg 386",
    "address_2": "",
    "zipcode": "3000",
    "city": "LEUVEN",
    "country": "BE",
    "phone": "+32 162 500 15",
    "website": "http:\/\/www.standardahz.be",
    "MIGX_id": "27",
    "latlong": {
      "street": "",
      "housenumber": "",
      "zipcode": "",
      "city": "",
      "state": "",
      "country": "",
      "latitude": "50.866608",
      "longitude": "4.743017"
    }
  },
  {
    "company": "Stassijns bvba",
    "address": "Steenweg op Dendermonde 127\/130",
    "address_2": "",
    "zipcode": "1745",
    "city": "OPWIJK",
    "country": "BE",
    "phone": "+32 523 560 78",
    "website": "http:\/\/www.stassijns.be",
    "MIGX_id": "28",
    "latlong": {
      "street": "",
      "housenumber": "",
      "zipcode": "",
      "city": "",
      "state": "",
      "country": "",
      "latitude": "50.9658338",
      "longitude": "4.1526164"
    }
  },
  {
    "company": "Stone Fire",
    "address": "Weg op Bree 101",
    "address_2": "",
    "zipcode": "3670",
    "city": "MEEUWEN",
    "country": "BE",
    "phone": "+32 116 115 63",
    "website": "http:\/\/www.stone-fire.be",
    "MIGX_id": "29",
    "latlong": {
      "street": "",
      "housenumber": "",
      "zipcode": "",
      "city": "",
      "state": "",
      "country": "",
      "latitude": "51.1015969",
      "longitude": "5.535359"
    }
  },
  {
    "company": "Van Bogaert and Zoon bvba",
    "address": "Fortstraat 10",
    "address_2": "",
    "zipcode": "9120",
    "city": "MELSELE",
    "country": "BE",
    "phone": "+32 377 592 07",
    "website": "http:\/\/www.bvbavanbogaert.be",
    "MIGX_id": "30",
    "latlong": {
      "street": "",
      "housenumber": "",
      "zipcode": "",
      "city": "",
      "state": "",
      "country": "",
      "latitude": "51.2090203",
      "longitude": "4.3016459"
    }
  },
  {
    "MIGX_id": "31",
    "company": "Ventichim",
    "address": "Astridplein 44",
    "address_2": "",
    "zipcode": "2280",
    "city": "GROBBENDONK",
    "country": "BE",
    "phone": "+32 476 231 031",
    "website": "http:\/\/www.ventichim.be",
    "latlong": {
      "street": "",
      "housenumber": "",
      "zipcode": "",
      "city": "",
      "state": "",
      "country": "",
      "latitude": "51.1922792",
      "longitude": "4.7390925"
    }
  },
  {
    "company": "Verbeke Haarden",
    "address": "Ouderdomseweg 10-12",
    "address_2": "",
    "zipcode": "8970",
    "city": "POPERINGE",
    "country": "BE",
    "phone": "+32 573 330 07",
    "website": "http:\/\/www.verbekehaarden.be",
    "MIGX_id": "32",
    "latlong": {
      "street": "",
      "housenumber": "",
      "zipcode": "",
      "city": "",
      "state": "",
      "country": "",
      "latitude": "50.847171",
      "longitude": "2.740708"
    }
  },
  {
    "company": "Vermandel-Dias bvba",
    "address": "Zandstraat 243",
    "address_2": "",
    "zipcode": "9170",
    "city": "SINT-PAUWELS",
    "country": "BE",
    "phone": "+32 377 976 58",
    "website": "http:\/\/www.vermandel-dias.be",
    "MIGX_id": "33",
    "latlong": {
      "street": "",
      "housenumber": "",
      "zipcode": "",
      "city": "",
      "state": "",
      "country": "",
      "latitude": "51.2037697",
      "longitude": "4.0777756"
    }
  },
  {
    "company": "Vuur en Vlam",
    "address": "Hundelgemsesteenweg 170, Ledeberg",
    "address_2": "",
    "zipcode": "9050",
    "city": "GENT",
    "country": "BE",
    "phone": "+32 923 078 50",
    "website": "http:\/\/www.vuurenvlam.com",
    "MIGX_id": "34",
    "latlong": {
      "street": "",
      "housenumber": "",
      "zipcode": "",
      "city": "",
      "state": "",
      "country": "",
      "latitude": "51.0309156",
      "longitude": "3.7435674"
    }
  },
  {
    "company": "Daliko Enterprises Ltd.",
    "address": "Lefkosias 3",
    "address_2": "Dhali Industrial Area",
    "zipcode": "2550",
    "city": "DALI",
    "country": "CY",
    "phone": "+35 722 612 100",
    "website": "http:\/\/www.daliko.com",
    "MIGX_id": "35",
    "latlong": {
      "street": "",
      "housenumber": "",
      "zipcode": "",
      "city": "",
      "state": "",
      "country": "",
      "latitude": "35.0497321",
      "longitude": "33.3928721"
    }
  },
  {
    "company": "Gas Pejse Butikken",
    "address": "Skebjergvej 33, Hal 21",
    "address_2": "",
    "zipcode": "2765",
    "city": "SM\u00d8RUM",
    "country": "DK",
    "phone": "+45 702 619 33",
    "website": "http:\/\/www.artdecofire.dk",
    "MIGX_id": "36",
    "latlong": {
      "street": "",
      "housenumber": "",
      "zipcode": "",
      "city": "",
      "state": "",
      "country": "",
      "latitude": "55.731191",
      "longitude": "12.3139369"
    }
  },
  {
    "company": "Haas-Meincke AS",
    "address": "Stadionvej 3",
    "address_2": "",
    "zipcode": "8840",
    "city": "ROEDKAERSBRO",
    "country": "DK",
    "phone": "+45 774 292 00",
    "website": "http:\/\/www.haas.com",
    "MIGX_id": "37",
    "latlong": {
      "street": "",
      "housenumber": "",
      "zipcode": "",
      "city": "",
      "state": "",
      "country": "",
      "latitude": "56.3500115",
      "longitude": "9.4993803"
    }
  },
  {
    "company": "Himmerlands Pejsecenter ApS",
    "address": "Smedevej 10",
    "address_2": "",
    "zipcode": "9500",
    "city": "HOBRO",
    "country": "DK",
    "phone": "+45 2462 8858",
    "website": "http:\/\/www.himmerlandspejsecenter.dk",
    "MIGX_id": "38",
    "latlong": {
      "street": "",
      "housenumber": "",
      "zipcode": "",
      "city": "",
      "state": "",
      "country": "",
      "latitude": "56.6261022",
      "longitude": "9.8015921"
    }
  },
  {
    "company": "Living Flames AS",
    "address": "Tobaksvej 10",
    "address_2": "",
    "zipcode": "5610",
    "city": "ASSENS",
    "country": "DK",
    "phone": "+45 637 151 00",
    "website": "http:\/\/www.livingflames.dk",
    "MIGX_id": "39",
    "latlong": {
      "street": "",
      "housenumber": "",
      "zipcode": "",
      "city": "",
      "state": "",
      "country": "",
      "latitude": "55.257918",
      "longitude": "9.90344"
    }
  },
  {
    "company": "RAIS AS",
    "address": "Industrivej 20, Vangen",
    "address_2": "",
    "zipcode": "9900",
    "city": "FREDERIKSHAVN",
    "country": "DK",
    "phone": "+45 984 790 33",
    "website": "http:\/\/www.rais.com",
    "MIGX_id": "40",
    "latlong": {
      "street": "",
      "housenumber": "",
      "zipcode": "",
      "city": "",
      "state": "",
      "country": "",
      "latitude": "57.3853466",
      "longitude": "10.5065345"
    }
  },
  {
    "company": "Industrias Herg\u00f3m S.A.",
    "address": "Calle de Borrancho",
    "address_2": "",
    "zipcode": "39110",
    "city": "SOTO DE LA MARINA",
    "country": "ES",
    "phone": "+34 942 587 000",
    "website": "http:\/\/www.hergom.com",
    "MIGX_id": "41",
    "latlong": {
      "street": "",
      "housenumber": "",
      "zipcode": "",
      "city": "",
      "state": "",
      "country": "",
      "latitude": "43.4650846",
      "longitude": "-3.8878789"
    }
  },
  {
    "company": "Takkamaailma",
    "address": "Petikontie 14A",
    "address_2": "",
    "zipcode": "1720",
    "city": "VANTAA",
    "country": "FI",
    "phone": "+35 840 087 28 58",
    "website": "http:\/\/www.takkamaailma.com",
    "MIGX_id": "42",
    "latlong": {
      "street": "",
      "housenumber": "",
      "zipcode": "",
      "city": "",
      "state": "",
      "country": "",
      "latitude": "60.2805625",
      "longitude": "24.8164406"
    }
  },
  {
    "company": "Emque Limited",
    "address": "50-54 Oswald Road",
    "address_2": "Scunthorpe",
    "zipcode": "DN15 7PQ",
    "city": "NORTH LINCOLNSHIRE",
    "country": "GB",
    "phone": "+44 748 416 09 46",
    "website": "",
    "MIGX_id": "52",
    "latlong": {
      "street": "",
      "housenumber": "",
      "zipcode": "",
      "city": "",
      "state": "",
      "country": "",
      "latitude": "53.5890793",
      "longitude": "-0.6535888"
    }
  },
  {
    "company": "Falcon Flues",
    "address": "Unit 1, The Long Yard, Ermin Street",
    "address_2": "Shefford Woodlands, Hungerford",
    "zipcode": "RG17 7EH",
    "city": "BERKSHIRE",
    "country": "GB",
    "phone": "+44 148 856 79 80",
    "website": "http:\/\/www.falconflues.co.uk",
    "MIGX_id": "53",
    "latlong": {
      "street": "",
      "housenumber": "",
      "zipcode": "",
      "city": "",
      "state": "",
      "country": "",
      "latitude": "51.4764275",
      "longitude": "-1.5294298"
    }
  },
  {
    "company": "Flue-stax Ltd.",
    "address": "The Old Chapel, Chapel St. Tingly",
    "address_2": "Wakefield",
    "zipcode": "WF3 1RE",
    "city": "WEST-YORKSHIRE",
    "country": "GB",
    "phone": "+44 163 875 11 55",
    "website": "http:\/\/www.fluestax.co.uk",
    "MIGX_id": "54",
    "latlong": {
      "street": "",
      "housenumber": "",
      "zipcode": "",
      "city": "",
      "state": "",
      "country": "",
      "latitude": "53.730994",
      "longitude": "-1.5681812"
    }
  },
  {
    "company": "Hamworthy Heating Ltd.",
    "address": "PO Box 103 National Avenue",
    "address_2": "Kingston Upon Hull",
    "zipcode": "HU5 4JN",
    "city": "YORKSHIRE",
    "country": "GB",
    "phone": "+44 120 266 25 00",
    "website": "http:\/\/www.hamworthy-heating.com",
    "MIGX_id": "55",
    "latlong": {
      "street": "",
      "housenumber": "",
      "zipcode": "",
      "city": "",
      "state": "",
      "country": "",
      "latitude": "53.7602999",
      "longitude": "-0.3827364"
    }
  },
  {
    "company": "Robeys Ltd.",
    "address": "Goods Road, Derbyshire",
    "address_2": "",
    "zipcode": "DE56 1UU",
    "city": "BELPER",
    "country": "GB",
    "phone": "+44 177 382 09 40",
    "website": "http:\/\/www.robeys.co.uk",
    "MIGX_id": "56",
    "latlong": {
      "street": "",
      "housenumber": "",
      "zipcode": "",
      "city": "",
      "state": "",
      "country": "",
      "latitude": "53.01672",
      "longitude": "-1.4843655"
    }
  },
  {
    "company": "Sigram Flue Systems Ltd.",
    "address": "Unit E1&E2 Meadowbank Business Park",
    "address_2": "Tweedale Way, Chadderton",
    "zipcode": "OL9 8EH",
    "city": "OLDHAM",
    "country": "GB",
    "phone": "+44 161 682 19 99",
    "website": "http:\/\/www.sigram.co.uk",
    "MIGX_id": "57",
    "latlong": {
      "street": "",
      "housenumber": "",
      "zipcode": "",
      "city": "",
      "state": "",
      "country": "",
      "latitude": "53.5188023",
      "longitude": "-2.1517956"
    }
  },
  {
    "company": "Specflue Ltd.",
    "address": "8 Curzon Road, Chilton Industrial Estate",
    "address_2": "Sudbury",
    "zipcode": "CO10 2XW",
    "city": "SUFFOLK",
    "country": "GB",
    "phone": "+44 333 999 79 74",
    "website": "http:\/\/www.specflue.com",
    "MIGX_id": "58",
    "latlong": {
      "street": "",
      "housenumber": "",
      "zipcode": "",
      "city": "",
      "state": "",
      "country": "",
      "latitude": "52.040975",
      "longitude": "0.749487"
    }
  },
  {
    "company": "De Kameinbauer",
    "address": "Rue Kalchesbruck 5",
    "address_2": "",
    "zipcode": "1015",
    "city": "LUXEMBURG",
    "country": "LU",
    "phone": "+35 242 401 51",
    "website": "http:\/\/www.dekameinbauer.lu",
    "MIGX_id": "60",
    "latlong": {
      "street": "",
      "housenumber": "",
      "zipcode": "",
      "city": "",
      "state": "",
      "country": "",
      "latitude": "49.6237062",
      "longitude": "6.1871364"
    }
  },
  {
    "company": "Vecoflex",
    "address": "14 zone d'activit\u00e9 op Zaemer",
    "address_2": "",
    "zipcode": "4959",
    "city": "BASCHARAGE",
    "country": "LU",
    "phone": "+35 226 650 354",
    "website": "http:\/\/www.vecoflex.eu",
    "MIGX_id": "61",
    "latlong": {
      "street": "",
      "housenumber": "",
      "zipcode": "",
      "city": "",
      "state": "",
      "country": "",
      "latitude": "49.5622334",
      "longitude": "5.9339409"
    }
  },
  {
    "company": "SIA Kamindizains",
    "address": "Augusta Deglava iela 50",
    "address_2": "Latgales priek\u0161pils\u0113ta",
    "zipcode": "1035",
    "city": "RIGA",
    "country": "LV",
    "phone": "+371 292 149 37",
    "website": "http:\/\/www.kamindizains.lv",
    "MIGX_id": "62",
    "latlong": {
      "street": "",
      "housenumber": "",
      "zipcode": "",
      "city": "",
      "state": "",
      "country": "",
      "latitude": "56.9506548",
      "longitude": "24.17048"
    }
  },
  {
    "company": "t Smidje haarden and kachels",
    "address": "Galderseweg 94",
    "address_2": "",
    "zipcode": "4855 AJ",
    "city": "GALDER",
    "country": "NL",
    "phone": "076 56 12 57 1",
    "website": "http:\/\/www.smidje.nl",
    "MIGX_id": "63",
    "latlong": {
      "street": "",
      "housenumber": "",
      "zipcode": "",
      "city": "",
      "state": "",
      "country": "",
      "latitude": "51.5046202",
      "longitude": "4.7786335"
    }
  },
  {
    "company": "BandE Installatiegroothandel",
    "address": "Oude Amersfoortseweg 249 b",
    "address_2": "",
    "zipcode": "1212 AD",
    "city": "HILVERSUM",
    "country": "NL",
    "phone": "035 72 00 973",
    "website": "http:\/\/www.beig.nl",
    "MIGX_id": "64",
    "latlong": {
      "street": "",
      "housenumber": "",
      "zipcode": "",
      "city": "",
      "state": "",
      "country": "",
      "latitude": "52.219623",
      "longitude": "5.1962336"
    }
  },
  {
    "company": "Berrevoets - t Vegertje",
    "address": "Zevengetijstraat 10",
    "address_2": "",
    "zipcode": "4301 EZ",
    "city": "ZIERIKZEE",
    "country": "NL",
    "phone": "0111 41 71 72",
    "website": "http:\/\/www.vegertje.nl",
    "MIGX_id": "65",
    "latlong": {
      "street": "",
      "housenumber": "",
      "zipcode": "",
      "city": "",
      "state": "",
      "country": "",
      "latitude": "51.6516935",
      "longitude": "3.9176231"
    }
  },
  {
    "company": "BKS Service B.V.",
    "address": "Morsestraat 8c",
    "address_2": "",
    "zipcode": "4004 JP",
    "city": "TIEL",
    "country": "NL",
    "phone": "0344 63 34 83",
    "website": "http:\/\/www.bks-tiel.nl",
    "MIGX_id": "66",
    "latlong": {
      "street": "",
      "housenumber": "",
      "zipcode": "",
      "city": "",
      "state": "",
      "country": "",
      "latitude": "51.9080712",
      "longitude": "5.4333133"
    }
  },
  {
    "company": "Boley Openhaarden BV",
    "address": "Marconiweg 1",
    "address_2": "",
    "zipcode": "5466 AS",
    "city": "VEGHEL",
    "country": "NL",
    "phone": "041 33 40 545",
    "website": "http:\/\/www.boley.nl",
    "MIGX_id": "67",
    "latlong": {
      "street": "",
      "housenumber": "",
      "zipcode": "",
      "city": "",
      "state": "",
      "country": "",
      "latitude": "51.6180052",
      "longitude": "5.5091687"
    }
  },
  {
    "company": "Bos Haarden en Kachels",
    "address": "Waalseweg 28",
    "address_2": "",
    "zipcode": "3999 NS",
    "city": "TULL EN 'T WAAL",
    "country": "NL",
    "phone": "030 60 17 524",
    "website": "http:\/\/www.bos-kachels.nl",
    "MIGX_id": "68",
    "latlong": {
      "street": "",
      "housenumber": "",
      "zipcode": "",
      "city": "",
      "state": "",
      "country": "",
      "latitude": "51.9985327",
      "longitude": "5.1456274"
    }
  },
  {
    "company": "Boudrie Kachels en Haarden",
    "address": "Thorbeckestraat 80",
    "address_2": "",
    "zipcode": "7577 RB",
    "city": "OLDENZAAL",
    "country": "NL",
    "phone": "0541 799 199",
    "website": "http:\/\/www.boudrie-kachels-haarden.nl",
    "MIGX_id": "69",
    "latlong": {
      "street": "",
      "housenumber": "",
      "zipcode": "",
      "city": "",
      "state": "",
      "country": "",
      "latitude": "52.3213039",
      "longitude": "6.9293836"
    }
  },
  {
    "company": "Bouwcenter Esselink ",
    "address": "Industrieweg 35",
    "address_2": "",
    "zipcode": "3241 MA",
    "city": "MIDDELHARNIS",
    "country": "NL",
    "phone": "0187 47 54 00",
    "website": "http:\/\/www.bouwcenter.nl\/esselink\/vestigingen\/",
    "MIGX_id": "70",
    "latlong": {
      "street": "",
      "housenumber": "",
      "zipcode": "",
      "city": "",
      "state": "",
      "country": "",
      "latitude": "51.7610174",
      "longitude": "4.1870702"
    }
  },
  {
    "company": "Boxman van Wijk",
    "address": "Binnendamseweg 26a",
    "address_2": "",
    "zipcode": "3381 GC",
    "city": "GIESSENBURG",
    "country": "NL",
    "phone": "0184 74 59 90",
    "website": "http:\/\/www.boxmanvanwijk.nl",
    "MIGX_id": "71",
    "latlong": {
      "street": "",
      "housenumber": "",
      "zipcode": "",
      "city": "",
      "state": "",
      "country": "",
      "latitude": "51.8338469",
      "longitude": "4.8615368"
    }
  },
  {
    "company": "Braakman schoorsteenbedrijf",
    "address": "Kroezenhoek 7",
    "address_2": "",
    "zipcode": "7683 PP",
    "city": "DEN HAM",
    "country": "NL",
    "phone": "06 46032860",
    "website": "http:\/\/www.schoorsteenbedrijfbraakman.nl",
    "MIGX_id": "72",
    "latlong": {
      "street": "",
      "housenumber": "",
      "zipcode": "",
      "city": "",
      "state": "",
      "country": "",
      "latitude": "52.4577218",
      "longitude": "6.497665"
    }
  },
  {
    "company": "Burnex Europe B.V.",
    "address": "Boerhaaveweg 36",
    "address_2": "",
    "zipcode": "3401 MN ",
    "city": "IJSSELSTEIN ",
    "country": "NL",
    "phone": "030 68 68 222",
    "website": "http:\/\/www.burnex.nl",
    "MIGX_id": "73",
    "latlong": {
      "street": "",
      "housenumber": "",
      "zipcode": "",
      "city": "",
      "state": "",
      "country": "",
      "latitude": "52.0159298",
      "longitude": "5.0547841"
    }
  },
  {
    "company": "Dani\u00ebls Open Haarden",
    "address": "Nachtschadestraat 21",
    "address_2": "",
    "zipcode": "3053 JX",
    "city": "ROTTERDAM",
    "country": "NL",
    "phone": "010 42 23 37 6",
    "website": "http:\/\/www.openhaard.nl",
    "MIGX_id": "74",
    "latlong": {
      "street": "",
      "housenumber": "",
      "zipcode": "",
      "city": "",
      "state": "",
      "country": "",
      "latitude": "51.9676348",
      "longitude": "4.4662851"
    }
  },
  {
    "company": "De Haardstede",
    "address": "Wautersweg 2",
    "address_2": "",
    "zipcode": "5993 NR",
    "city": "MAASBREE",
    "country": "NL",
    "phone": "077 46 51 794",
    "website": "http:\/\/www.haardstede.nl",
    "MIGX_id": "75",
    "latlong": {
      "street": "",
      "housenumber": "",
      "zipcode": "",
      "city": "",
      "state": "",
      "country": "",
      "latitude": "51.3691005",
      "longitude": "6.0280358"
    }
  },
  {
    "company": "De Vogelsangh",
    "address": "Nieuwe Hammerweg 7",
    "address_2": "",
    "zipcode": "7731 TV",
    "city": "OMMEN",
    "country": "NL",
    "phone": "054 66 73 08 0",
    "website": "http:\/\/www.devogelsangh.nl",
    "MIGX_id": "76",
    "latlong": {
      "street": "",
      "housenumber": "",
      "zipcode": "",
      "city": "",
      "state": "",
      "country": "",
      "latitude": "52.492963",
      "longitude": "6.507642"
    }
  },
  {
    "company": "De Zeeuwse Haardenspecialist",
    "address": "Anthony Fokkerstraat 28",
    "address_2": "",
    "zipcode": "4462 ET",
    "city": "GOES",
    "country": "NL",
    "phone": "0113  40 50 22",
    "website": "http:\/\/www.dezeeuwsehaardenspecialist.nl",
    "MIGX_id": "77",
    "latlong": {
      "street": "",
      "housenumber": "",
      "zipcode": "",
      "city": "",
      "state": "",
      "country": "",
      "latitude": "51.4927931",
      "longitude": "3.8820066"
    }
  },
  {
    "company": "Deterink Openhaarden",
    "address": "Geerskamp 9",
    "address_2": "",
    "zipcode": "7666 NK",
    "city": "FLERINGEN",
    "country": "NL",
    "phone": "06 2003 8665",
    "website": "http:\/\/www.deterinkopenhaarden.nl",
    "MIGX_id": "79",
    "latlong": {
      "street": "",
      "housenumber": "",
      "zipcode": "",
      "city": "",
      "state": "",
      "country": "",
      "latitude": "52.3820571",
      "longitude": "6.8085424"
    }
  },
  {
    "company": "DRU Verwarming B.V.",
    "address": "Ratio 8",
    "address_2": "",
    "zipcode": "6921 RW",
    "city": "DUIVEN",
    "country": "NL",
    "phone": "026 319 5 319",
    "website": "http:\/\/www.drufire.com",
    "MIGX_id": "80",
    "latlong": {
      "street": "",
      "housenumber": "",
      "zipcode": "",
      "city": "",
      "state": "",
      "country": "",
      "latitude": "51.9610985",
      "longitude": "6.0180973"
    }
  },
  {
    "company": "Eco2All B.V.",
    "address": "Schouwrooij 13",
    "address_2": "",
    "zipcode": "5281 RE ",
    "city": "BOXTEL",
    "country": "NL",
    "phone": "0499 37 83 08",
    "website": "http:\/\/www.eco2all.nl",
    "MIGX_id": "81",
    "latlong": {
      "street": "",
      "housenumber": "",
      "zipcode": "",
      "city": "",
      "state": "",
      "country": "",
      "latitude": "51.5837864",
      "longitude": "5.3073701"
    }
  },
  {
    "company": "Element4 B.V.",
    "address": "Paxtonstraat 23",
    "address_2": "",
    "zipcode": "8013 RP",
    "city": "ZWOLLE",
    "country": "NL",
    "phone": "038 420 90 20",
    "website": "http:\/\/www.element4.nl",
    "MIGX_id": "82",
    "latlong": {
      "street": "",
      "housenumber": "",
      "zipcode": "",
      "city": "",
      "state": "",
      "country": "",
      "latitude": "52.4870831",
      "longitude": "6.1362503"
    }
  },
  {
    "company": "Fireplace",
    "address": "Laan van Everswaard 57\/59",
    "address_2": "",
    "zipcode": "4617 LH",
    "city": "BERGEN OP ZOOM",
    "country": "NL",
    "phone": "0164 26 19 09",
    "website": "http:\/\/www.fireplace-haarden.nl",
    "MIGX_id": "83",
    "latlong": {
      "street": "",
      "housenumber": "",
      "zipcode": "",
      "city": "",
      "state": "",
      "country": "",
      "latitude": "51.474996",
      "longitude": "4.2846564"
    }
  },
  {
    "company": "G.B. van Echtelt",
    "address": "Smalleweg 25",
    "address_2": "",
    "zipcode": "3981 EE",
    "city": "BUNNIK",
    "country": "NL",
    "phone": "030 65 62 157",
    "website": "http:\/\/www.vanechteltenzoon.nl",
    "MIGX_id": "84",
    "latlong": {
      "street": "",
      "housenumber": "",
      "zipcode": "",
      "city": "",
      "state": "",
      "country": "",
      "latitude": "52.0662651",
      "longitude": "5.2030773"
    }
  },
  {
    "company": "Gebr. Van Walraven B.V.",
    "address": "Nijverheidsweg 26",
    "address_2": "",
    "zipcode": "3641 RR",
    "city": "MIJDRECHT",
    "country": "NL",
    "phone": "0297 23 14 00",
    "website": "http:\/\/www.vanwalraven.com\/nl\/page\/vestigingen",
    "MIGX_id": "87",
    "latlong": {
      "street": "",
      "housenumber": "",
      "zipcode": "",
      "city": "",
      "state": "",
      "country": "",
      "latitude": "52.2034689",
      "longitude": "4.8769862"
    }
  },
  {
    "company": "Glasbeek Finish BV",
    "address": "Noordkade 20",
    "address_2": "",
    "zipcode": "2741 EV",
    "city": "WADDINXVEEN",
    "country": "NL",
    "phone": "0182 322 422",
    "website": "http:\/\/www.glasbeekfinish.nl",
    "MIGX_id": "88",
    "latlong": {
      "street": "",
      "housenumber": "",
      "zipcode": "",
      "city": "",
      "state": "",
      "country": "",
      "latitude": "52.0478446",
      "longitude": "4.6592654"
    }
  },
  {
    "company": "Haarden Architektuur Appelman",
    "address": "Verfmolenstraat 40",
    "address_2": "",
    "zipcode": "1333 AV",
    "city": "ALMERE - BUITEN",
    "country": "NL",
    "phone": "036 53 29 66 4",
    "website": "http:\/\/www.appelman-haarden.nl",
    "MIGX_id": "89",
    "latlong": {
      "street": "",
      "housenumber": "",
      "zipcode": "",
      "city": "",
      "state": "",
      "country": "",
      "latitude": "52.3972141",
      "longitude": "5.2671034"
    }
  },
  {
    "company": "Haardencentrum Alkmaar",
    "address": "Wolvenkoog 5",
    "address_2": "",
    "zipcode": "1822 BE",
    "city": "ALKMAAR",
    "country": "NL",
    "phone": "072 564 2076",
    "website": "http:\/\/www.haardencentrumalkmaar.nl",
    "MIGX_id": "90",
    "latlong": {
      "street": "",
      "housenumber": "",
      "zipcode": "",
      "city": "",
      "state": "",
      "country": "",
      "latitude": "52.6432845",
      "longitude": "4.7823773"
    }
  },
  {
    "company": "Harrie Leenders Haardkachels",
    "address": "Industrieweg 25",
    "address_2": "",
    "zipcode": "5688 DP",
    "city": "OIRSCHOT",
    "country": "NL",
    "phone": "0499 57 27 10",
    "website": "http:\/\/www.leenders.nl",
    "MIGX_id": "91",
    "latlong": {
      "street": "",
      "housenumber": "",
      "zipcode": "",
      "city": "",
      "state": "",
      "country": "",
      "latitude": "51.5038194",
      "longitude": "5.3307378"
    }
  },
  {
    "company": "Harry Bloemen b.v.",
    "address": "Nijverheidstraat 21",
    "address_2": "",
    "zipcode": "7581 PV",
    "city": "LOSSER",
    "country": "NL",
    "phone": "053 53 82 71 3",
    "website": "http:\/\/www.harrybloemen.nl",
    "MIGX_id": "92",
    "latlong": {
      "street": "",
      "housenumber": "",
      "zipcode": "",
      "city": "",
      "state": "",
      "country": "",
      "latitude": "52.2511287",
      "longitude": "7.0109316"
    }
  },
  {
    "company": "Heinen and Hopman Installaties",
    "address": "Zuidwenk 45",
    "address_2": "",
    "zipcode": "3751 CB",
    "city": "BUNSCHOTEN-SPAKENBURG",
    "country": "NL",
    "phone": "033 2992500",
    "website": "http:\/\/www.heinenhopmaninstallaties.nl",
    "MIGX_id": "93",
    "latlong": {
      "street": "",
      "housenumber": "",
      "zipcode": "",
      "city": "",
      "state": "",
      "country": "",
      "latitude": "52.2487664",
      "longitude": "5.3864066"
    }
  },
  {
    "company": "Het Openhaarden Huys v.o.f.",
    "address": "Pfinztalstraat 18",
    "address_2": "",
    "zipcode": "4143 JB",
    "city": "LEERDAM",
    "country": "NL",
    "phone": "0345 59 91 65",
    "website": "http:\/\/www.hetopenhaardenhuys.nl",
    "MIGX_id": "94",
    "latlong": {
      "street": "",
      "housenumber": "",
      "zipcode": "",
      "city": "",
      "state": "",
      "country": "",
      "latitude": "51.9003649",
      "longitude": "5.0985988"
    }
  },
  {
    "company": "Holland Heater De Lier B.V.",
    "address": "Leehove 2",
    "address_2": "",
    "zipcode": "2678 MC",
    "city": "DE LIER",
    "country": "NL",
    "phone": "0174 51 67 41",
    "website": "http:\/\/www.hollandheater.nl",
    "MIGX_id": "95",
    "latlong": {
      "street": "",
      "housenumber": "",
      "zipcode": "",
      "city": "",
      "state": "",
      "country": "",
      "latitude": "51.9714989",
      "longitude": "4.2244803"
    }
  },
  {
    "company": "Hout en Haard B.V.",
    "address": "Buijs Ballotstraat 15",
    "address_2": "",
    "zipcode": "2693 BD",
    "city": "'S-GRAVEZANDE",
    "country": "NL",
    "phone": "0174 44 06 92",
    "website": "http:\/\/www.houtenhaard.nl",
    "MIGX_id": "96",
    "latlong": {
      "street": "",
      "housenumber": "",
      "zipcode": "",
      "city": "",
      "state": "",
      "country": "",
      "latitude": "51.9941587",
      "longitude": "4.1825405"
    }
  },
  {
    "MIGX_id": "97",
    "company": "Houtkachelwarmte",
    "address": "Ursuladyk 12",
    "address_2": "",
    "zipcode": "8724 HR",
    "city": "IT HEIDENSKIP",
    "country": "NL",
    "phone": "0515 543064",
    "website": "http:\/\/www.houtkachelwarmte.nl",
    "latlong": {
      "street": "",
      "housenumber": "",
      "zipcode": "",
      "city": "",
      "state": "",
      "country": "",
      "latitude": "52.9613702",
      "longitude": "5.4739251"
    }
  },
  {
    "company": "J. Hoogeveen and co. b.v.",
    "address": "Veenkade 31",
    "address_2": "",
    "zipcode": "2513 EG",
    "city": "'S-GRAVENHAGE",
    "country": "NL",
    "phone": "070 34 69 61 5",
    "website": "http:\/\/www.hoogeveenenco.nl",
    "MIGX_id": "98",
    "latlong": {
      "street": "",
      "housenumber": "",
      "zipcode": "",
      "city": "",
      "state": "",
      "country": "",
      "latitude": "52.0795583",
      "longitude": "4.3015449"
    }
  },
  {
    "company": "Jantri haarden and duurzame energie",
    "address": "Kalkoven 18",
    "address_2": "",
    "zipcode": "9351 NP",
    "city": "LEEK",
    "country": "NL",
    "phone": "0594 51 07 34",
    "website": "http:\/\/www.jantri.nl",
    "MIGX_id": "99",
    "latlong": {
      "street": "",
      "housenumber": "",
      "zipcode": "",
      "city": "",
      "state": "",
      "country": "",
      "latitude": "53.151649",
      "longitude": "6.3656175"
    }
  },
  {
    "company": "Jens Haarden BV",
    "address": "Nijverheidsstraat 1",
    "address_2": "",
    "zipcode": "2751 GR",
    "city": "MOERKAPELLE",
    "country": "NL",
    "phone": "079 59 31 21 7",
    "website": "http:\/\/www.jenshaarden.nl",
    "MIGX_id": "100",
    "latlong": {
      "street": "",
      "housenumber": "",
      "zipcode": "",
      "city": "",
      "state": "",
      "country": "",
      "latitude": "52.0426397",
      "longitude": "4.5842026"
    }
  },
  {
    "company": "Jerbo Haarden en Kachels BV",
    "address": "De Veken 206c",
    "address_2": "",
    "zipcode": "1716 KJ",
    "city": "OPMEER",
    "country": "NL",
    "phone": "0226 427122",
    "website": "http:\/\/www.jerbohaarden.nl",
    "MIGX_id": "101",
    "latlong": {
      "street": "",
      "housenumber": "",
      "zipcode": "",
      "city": "",
      "state": "",
      "country": "",
      "latitude": "52.708072",
      "longitude": "4.951291"
    }
  },
  {
    "company": "Jos Meijer Haarden",
    "address": "Hendrik Westerstraat 17",
    "address_2": "",
    "zipcode": "9791 CS",
    "city": "TEN BOER",
    "country": "NL",
    "phone": "050 850 68 18",
    "website": "http:\/\/www.josmeijerhaarden.nl",
    "MIGX_id": "102",
    "latlong": {
      "street": "",
      "housenumber": "",
      "zipcode": "",
      "city": "",
      "state": "",
      "country": "",
      "latitude": "53.2762196",
      "longitude": "6.6930321"
    }
  },
  {
    "company": "Kachelhandel Lubeko",
    "address": "Bedrijfsweg 9",
    "address_2": "",
    "zipcode": "1785 AK",
    "city": "DEN HELDER",
    "country": "NL",
    "phone": "0223 62 19 00",
    "website": "http:\/\/www.lubeko.nl",
    "MIGX_id": "103",
    "latlong": {
      "street": "",
      "housenumber": "",
      "zipcode": "",
      "city": "",
      "state": "",
      "country": "",
      "latitude": "52.942297",
      "longitude": "4.7793516"
    }
  },
  {
    "company": "Kachels and haarden Wintermans",
    "address": "Koperslager 10",
    "address_2": "",
    "zipcode": "5521 DE",
    "city": "EERSEL",
    "country": "NL",
    "phone": "0497 51 22 41",
    "website": "http:\/\/www.wintermanshaarden.nl",
    "MIGX_id": "104",
    "latlong": {
      "street": "",
      "housenumber": "",
      "zipcode": "",
      "city": "",
      "state": "",
      "country": "",
      "latitude": "51.3646215",
      "longitude": "5.3158943"
    }
  },
  {
    "company": "Kachelshop Kruisland",
    "address": "Molenstraat 23",
    "address_2": "",
    "zipcode": "4756 BA",
    "city": "KRUISLAND",
    "country": "NL",
    "phone": "0167 53 32 53",
    "website": "http:\/\/www.kachelshopkruisland.nl",
    "MIGX_id": "105",
    "latlong": {
      "street": "",
      "housenumber": "",
      "zipcode": "",
      "city": "",
      "state": "",
      "country": "",
      "latitude": "51.5693999",
      "longitude": "4.408638"
    }
  },
  {
    "company": "KUSK Haarden and Kachels",
    "address": "Van Zuylen van Nieveltlaan 83",
    "address_2": "",
    "zipcode": "3771 AB",
    "city": "BARNEVELD",
    "country": "NL",
    "phone": "0342 42 11 15",
    "website": "http:\/\/www.kusk.nl",
    "MIGX_id": "106",
    "latlong": {
      "street": "",
      "housenumber": "",
      "zipcode": "",
      "city": "",
      "state": "",
      "country": "",
      "latitude": "52.1412311",
      "longitude": "5.5900197"
    }
  },
  {
    "company": "Lavrijsen Haarden",
    "address": "Industrieweg 1a",
    "address_2": "",
    "zipcode": "5527 AJ",
    "city": "HAPERT",
    "country": "NL",
    "phone": "0497 381245",
    "website": "http:\/\/www.lavrijsenhaarden.nl",
    "MIGX_id": "107",
    "latlong": {
      "street": "",
      "housenumber": "",
      "zipcode": "",
      "city": "",
      "state": "",
      "country": "",
      "latitude": "51.3721201",
      "longitude": "5.2642825"
    }
  },
  {
    "company": "Loomans Kachels and Openhaarden b.v.",
    "address": "Leemkuil 13c",
    "address_2": "",
    "zipcode": "5626 EA",
    "city": "EINDHOVEN",
    "country": "NL",
    "phone": "040 2124393",
    "website": "http:\/\/www.loomans.com",
    "MIGX_id": "108",
    "latlong": {
      "street": "",
      "housenumber": "",
      "zipcode": "",
      "city": "",
      "state": "",
      "country": "",
      "latitude": "51.4807369",
      "longitude": "5.4182091"
    }
  },
  {
    "company": "Mulder haarden and kachels",
    "address": "Leppedijk 1a",
    "address_2": "",
    "zipcode": "9245 HB",
    "city": "NIJ BEETS",
    "country": "NL",
    "phone": "0512 46 11 31",
    "website": "http:\/\/www.mulderhaarden.nl",
    "MIGX_id": "109",
    "latlong": {
      "street": "",
      "housenumber": "",
      "zipcode": "",
      "city": "",
      "state": "",
      "country": "",
      "latitude": "53.0666422",
      "longitude": "6.0239532"
    }
  },
  {
    "company": "Ooms Warmtewereld",
    "address": "Zuidweg 20a",
    "address_2": "",
    "zipcode": "4316 LB",
    "city": "ZONNEMAIRE",
    "country": "NL",
    "phone": "0111 46 34 96",
    "website": "http:\/\/www.oomswarmtewereld.nl",
    "MIGX_id": "110",
    "latlong": {
      "street": "",
      "housenumber": "",
      "zipcode": "",
      "city": "",
      "state": "",
      "country": "",
      "latitude": "51.7087702",
      "longitude": "3.9483688"
    }
  },
  {
    "company": "Open haarden centrum Vlaardingen",
    "address": "Oosthavenkade 73",
    "address_2": "",
    "zipcode": "3134 NX",
    "city": "VLAARDINGEN",
    "country": "NL",
    "phone": "010 43 42 456",
    "website": "http:\/\/www.openhaardencentrum.nl",
    "MIGX_id": "111",
    "latlong": {
      "street": "",
      "housenumber": "",
      "zipcode": "",
      "city": "",
      "state": "",
      "country": "",
      "latitude": "51.904462",
      "longitude": "4.3476147"
    }
  },
  {
    "company": "Paul Spronk Ambachtelijke openhaardenbouw",
    "address": "Overweg 126",
    "address_2": "",
    "zipcode": "1191 RD",
    "city": "OUDERKERK A\/D AMSTEL",
    "country": "NL",
    "phone": "020 496 47 47",
    "website": "http:\/\/www.openhaarden.com",
    "MIGX_id": "112",
    "latlong": {
      "street": "",
      "housenumber": "",
      "zipcode": "",
      "city": "",
      "state": "",
      "country": "",
      "latitude": "52.2957216",
      "longitude": "4.9232225"
    }
  },
  {
    "company": "Plieger BV",
    "address": "Koxkampseweg 6",
    "address_2": "",
    "zipcode": "5301 KK",
    "city": "ZALTBOMMEL",
    "country": "NL",
    "phone": "0418 682682",
    "website": "http:\/\/www.plieger.nl\/consument\/vestigingen",
    "MIGX_id": "113",
    "latlong": {
      "street": "",
      "housenumber": "",
      "zipcode": "",
      "city": "",
      "state": "",
      "country": "",
      "latitude": "51.8018973",
      "longitude": "5.2617804"
    }
  },
  {
    "MIGX_id": "114",
    "company": "Pook haarden B.V.",
    "address": "Vlietskade 6004",
    "address_2": "",
    "zipcode": "4241 WP",
    "city": "ARKEL",
    "country": "NL",
    "phone": "0183 712998",
    "website": "http:\/\/www.pookhaarden.nl",
    "latlong": {
      "street": "Vlietskade ",
      "housenumber": "6004",
      "zipcode": "4241 WP",
      "city": "Arkel",
      "state": "",
      "country": "Netherlands",
      "latitude": "51.8685069",
      "longitude": "4.992378299999999"
    }
  },
  {
    "company": "Raab Karcher Bouwstoffen",
    "address": "Waldammeweg 2",
    "address_2": "",
    "zipcode": "4338 PJ",
    "city": "MIDDELBURG",
    "country": "NL",
    "phone": "0118 62 50 55",
    "website": "http:\/\/www.raabkarcher.nl\/contact\/alle-vestigingen",
    "MIGX_id": "115",
    "latlong": {
      "street": "",
      "housenumber": "",
      "zipcode": "",
      "city": "",
      "state": "",
      "country": "",
      "latitude": "51.4934859",
      "longitude": "3.6402569"
    }
  },
  {
    "company": "Raab Karcher Bouwstoffen",
    "address": "Atlasstraat 1b",
    "address_2": "",
    "zipcode": "5047 RG",
    "city": "TILBURG",
    "country": "NL",
    "phone": "013 458 0000",
    "website": "http:\/\/www.raabkarcher.nl\/contact\/alle-vestigingen",
    "MIGX_id": "116",
    "latlong": {
      "street": "",
      "housenumber": "",
      "zipcode": "",
      "city": "",
      "state": "",
      "country": "",
      "latitude": "51.6053829",
      "longitude": "5.0062081"
    }
  },
  {
    "company": "Reijnhoudt and v.d. Zwet b.v.",
    "address": "Stephensonstraat 31",
    "address_2": "",
    "zipcode": "2014 KB",
    "city": "HAARLEM",
    "country": "NL",
    "phone": "023 53 13 70 9",
    "website": "http:\/\/www.sfeerverwarming.info",
    "MIGX_id": "117",
    "latlong": {
      "street": "",
      "housenumber": "",
      "zipcode": "",
      "city": "",
      "state": "",
      "country": "",
      "latitude": "52.3695828",
      "longitude": "4.6136402"
    }
  },
  {
    "company": "Rowit Spuitkabines Kampen B.V.",
    "address": "Ertsstraat 6",
    "address_2": "",
    "zipcode": "8263 BN",
    "city": "KAMPEN",
    "country": "NL",
    "phone": "038 331 56 48",
    "website": "http:\/\/www.rowit.nl",
    "MIGX_id": "118",
    "latlong": {
      "street": "",
      "housenumber": "",
      "zipcode": "",
      "city": "",
      "state": "",
      "country": "",
      "latitude": "52.56528",
      "longitude": "5.881335"
    }
  },
  {
    "company": "Salamander Open Haarden B.V.",
    "address": "De Dieze 42",
    "address_2": "",
    "zipcode": "5684 PT",
    "city": "BEST",
    "country": "NL",
    "phone": "049 93 72 60 0",
    "website": "http:\/\/www.desalamander.com",
    "MIGX_id": "119",
    "latlong": {
      "street": "",
      "housenumber": "",
      "zipcode": "",
      "city": "",
      "state": "",
      "country": "",
      "latitude": "51.4889647",
      "longitude": "5.4047588"
    }
  },
  {
    "company": "Schmidt schoorsteenwerken b.v.",
    "address": "A. Hofmanweg 22",
    "address_2": "",
    "zipcode": "2031 BL",
    "city": "HAARLEM",
    "country": "NL",
    "phone": "023 53 16 950",
    "website": "http:\/\/www.schmidt-schoorsteenwerken.nl",
    "MIGX_id": "120",
    "latlong": {
      "street": "",
      "housenumber": "",
      "zipcode": "",
      "city": "",
      "state": "",
      "country": "",
      "latitude": "52.3933079",
      "longitude": "4.6673807"
    }
  },
  {
    "company": "Schoorsteenbedrijf Zelhem",
    "address": "Halseweg 38",
    "address_2": "",
    "zipcode": "7021 HX",
    "city": "ZELHEM",
    "country": "NL",
    "phone": "0314 622267",
    "website": "http:\/\/www.schoorsteenbedrijfzelhem.nl",
    "MIGX_id": "121",
    "latlong": {
      "street": "",
      "housenumber": "",
      "zipcode": "",
      "city": "",
      "state": "",
      "country": "",
      "latitude": "52.0042012",
      "longitude": "6.3787257"
    }
  },
  {
    "company": "Solar Nederland b.v.",
    "address": "Toermalijnstraat 7",
    "address_2": "",
    "zipcode": "1812 RL",
    "city": "ALKMAAR",
    "country": "NL",
    "phone": "088 7652718",
    "website": "http:\/\/www.solarnederland.nl\/contact",
    "MIGX_id": "122",
    "latlong": {
      "street": "",
      "housenumber": "",
      "zipcode": "",
      "city": "",
      "state": "",
      "country": "",
      "latitude": "52.6050656",
      "longitude": "4.7441533"
    }
  },
  {
    "company": "Soloan BV",
    "address": "Nijverheidsstraat 5",
    "address_2": "",
    "zipcode": "3371 XE",
    "city": "HARDINXVELD-GIESSENDAM",
    "country": "NL",
    "phone": "0184 63 0014",
    "website": "http:\/\/www.soloan.nl",
    "MIGX_id": "123",
    "latlong": {
      "street": "",
      "housenumber": "",
      "zipcode": "",
      "city": "",
      "state": "",
      "country": "",
      "latitude": "51.8239917",
      "longitude": "4.816546"
    }
  },
  {
    "company": "t Kachelhuus van der Vlist B.V.",
    "address": "Galvanistraat 20",
    "address_2": "",
    "zipcode": "6716 AE",
    "city": "EDE",
    "country": "NL",
    "phone": "0318 69 00 89",
    "website": "http:\/\/www.kachelhuus.nl",
    "MIGX_id": "124",
    "latlong": {
      "street": "",
      "housenumber": "",
      "zipcode": "",
      "city": "",
      "state": "",
      "country": "",
      "latitude": "52.0284779",
      "longitude": "5.6300961"
    }
  },
  {
    "company": "t Zanddorp",
    "address": "Kleverskerkseweg 16",
    "address_2": "",
    "zipcode": "4338 PM",
    "city": "MIDDELBURG",
    "country": "NL",
    "phone": "0118 61 59 42",
    "website": "http:\/\/www.zanddorp.nl",
    "MIGX_id": "125",
    "latlong": {
      "street": "",
      "housenumber": "",
      "zipcode": "",
      "city": "",
      "state": "",
      "country": "",
      "latitude": "51.5005686",
      "longitude": "3.6392963"
    }
  },
  {
    "company": "Technische Unie",
    "address": "Twentepoort Oost 44",
    "address_2": "",
    "zipcode": "7609 RG",
    "city": "ALMELO",
    "country": "NL",
    "phone": "546534141",
    "website": "http:\/\/www.technischeunie.com",
    "MIGX_id": "126",
    "latlong": {
      "street": "",
      "housenumber": "",
      "zipcode": "",
      "city": "",
      "state": "",
      "country": "",
      "latitude": "52.327151",
      "longitude": "6.6532315"
    }
  },
  {
    "company": "Technische Unie",
    "address": "Maxwellstraat 39",
    "address_2": "",
    "zipcode": "6716 BX",
    "city": "EDE",
    "country": "NL",
    "phone": "318664764",
    "website": "http:\/\/www.technischeunie.com",
    "MIGX_id": "127",
    "latlong": {
      "street": "",
      "housenumber": "",
      "zipcode": "",
      "city": "",
      "state": "",
      "country": "",
      "latitude": "52.0287499",
      "longitude": "5.615434"
    }
  },
  {
    "company": "Technische Unie",
    "address": "Driemanssteeweg 106",
    "address_2": "",
    "zipcode": "3084 CB",
    "city": "ROTTERDAM CHARLOIS",
    "country": "NL",
    "phone": "102030303",
    "website": "http:\/\/www.technischeunie.com",
    "MIGX_id": "128",
    "latlong": {
      "street": "",
      "housenumber": "",
      "zipcode": "",
      "city": "",
      "state": "",
      "country": "",
      "latitude": "51.8655569",
      "longitude": "4.458643"
    }
  },
  {
    "company": "Technische Unie",
    "address": "Marconistraat 36",
    "address_2": "",
    "zipcode": "2809 PE",
    "city": "GOUDA",
    "country": "NL",
    "phone": "182541241",
    "website": "http:\/\/www.technischeunie.com",
    "MIGX_id": "129",
    "latlong": {
      "street": "",
      "housenumber": "",
      "zipcode": "",
      "city": "",
      "state": "",
      "country": "",
      "latitude": "52.0044359",
      "longitude": "4.6902683"
    }
  },
  {
    "company": "Technische Unie",
    "address": "Jupiterkade 7",
    "address_2": "",
    "zipcode": "2516 BS",
    "city": "\u00b4s-GRAVENHAGE ",
    "country": "NL",
    "phone": "703151616",
    "website": "http:\/\/www.technischeunie.com",
    "MIGX_id": "130",
    "latlong": {
      "street": "",
      "housenumber": "",
      "zipcode": "",
      "city": "",
      "state": "",
      "country": "",
      "latitude": "52.0630585",
      "longitude": "4.3404803"
    }
  },
  {
    "company": "Technische Unie",
    "address": "De Liesbosch 88",
    "address_2": "",
    "zipcode": "3439 LC",
    "city": "NIEUWEGEIN",
    "country": "NL",
    "phone": "302669266",
    "website": "http:\/\/www.technischeunie.com",
    "MIGX_id": "131",
    "latlong": {
      "street": "",
      "housenumber": "",
      "zipcode": "",
      "city": "",
      "state": "",
      "country": "",
      "latitude": "52.0531786",
      "longitude": "5.1119023"
    }
  },
  {
    "company": "Technische Unie",
    "address": "R\u00f6ntgenstraat 19",
    "address_2": "",
    "zipcode": "3316 GT",
    "city": "DORDRECHT",
    "country": "NL",
    "phone": "786546666",
    "website": "http:\/\/www.technischeunie.com",
    "MIGX_id": "132",
    "latlong": {
      "street": "",
      "housenumber": "",
      "zipcode": "",
      "city": "",
      "state": "",
      "country": "",
      "latitude": "51.7807119",
      "longitude": "4.6334069"
    }
  },
  {
    "company": "Technische Unie",
    "address": "Alerbeemdweg 25",
    "address_2": "",
    "zipcode": "5928 PV",
    "city": "VENLO",
    "country": "NL",
    "phone": "773248248",
    "website": "http:\/\/www.technischeunie.com",
    "MIGX_id": "133",
    "latlong": {
      "street": "",
      "housenumber": "",
      "zipcode": "",
      "city": "",
      "state": "",
      "country": "",
      "latitude": "51.3792937",
      "longitude": "6.1581341"
    }
  },
  {
    "company": "Technische Unie",
    "address": "Ivoorstraat 2",
    "address_2": "",
    "zipcode": "1812 RE",
    "city": "ALKMAAR",
    "country": "NL",
    "phone": "725676767",
    "website": "http:\/\/www.technischeunie.com",
    "MIGX_id": "134",
    "latlong": {
      "street": "",
      "housenumber": "",
      "zipcode": "",
      "city": "",
      "state": "",
      "country": "",
      "latitude": "52.6113572",
      "longitude": "4.7576592"
    }
  },
  {
    "company": "Technische Unie",
    "address": "De Giem 35",
    "address_2": "",
    "zipcode": "7547 SW",
    "city": "ENSCHEDE",
    "country": "NL",
    "phone": "534804141",
    "website": "http:\/\/www.technischeunie.com",
    "MIGX_id": "135",
    "latlong": {
      "street": "",
      "housenumber": "",
      "zipcode": "",
      "city": "",
      "state": "",
      "country": "",
      "latitude": "52.2223013",
      "longitude": "6.8367843"
    }
  },
  {
    "company": "Technische Unie",
    "address": "Zuiderkruisweg 1",
    "address_2": "",
    "zipcode": "8938 AP",
    "city": "LEEUWARDEN",
    "country": "NL",
    "phone": "582847999",
    "website": "http:\/\/www.technischeunie.com",
    "MIGX_id": "136",
    "latlong": {
      "street": "",
      "housenumber": "",
      "zipcode": "",
      "city": "",
      "state": "",
      "country": "",
      "latitude": "53.1945185",
      "longitude": "5.8457745"
    }
  },
  {
    "company": "Technische Unie",
    "address": "Flevoweg 16",
    "address_2": "",
    "zipcode": "2318 BZ",
    "city": "LEIDEN",
    "country": "NL",
    "phone": "715681568",
    "website": "http:\/\/www.technischeunie.com",
    "MIGX_id": "137",
    "latlong": {
      "street": "",
      "housenumber": "",
      "zipcode": "",
      "city": "",
      "state": "",
      "country": "",
      "latitude": "52.1743259",
      "longitude": "4.4964319"
    }
  },
  {
    "company": "Technische Unie",
    "address": "Hanzeweg 34",
    "address_2": "",
    "zipcode": "7418 AT",
    "city": "DEVENTER",
    "country": "NL",
    "phone": "570661616",
    "website": "http:\/\/www.technischeunie.com",
    "MIGX_id": "138",
    "latlong": {
      "street": "",
      "housenumber": "",
      "zipcode": "",
      "city": "",
      "state": "",
      "country": "",
      "latitude": "52.249426",
      "longitude": "6.1774669"
    }
  },
  {
    "company": "Technische Unie",
    "address": "Takkebijsters 19",
    "address_2": "",
    "zipcode": "4817 BL",
    "city": "BREDA",
    "country": "NL",
    "phone": "765722257",
    "website": "http:\/\/www.technischeunie.com",
    "MIGX_id": "139",
    "latlong": {
      "street": "",
      "housenumber": "",
      "zipcode": "",
      "city": "",
      "state": "",
      "country": "",
      "latitude": "51.5971097",
      "longitude": "4.8245632"
    }
  },
  {
    "company": "Technische Unie",
    "address": "Schuttevaerweg 76",
    "address_2": "",
    "zipcode": "3044 BB",
    "city": "ROTTERDAM SPAANSE POLDER",
    "country": "NL",
    "phone": "102080608",
    "website": "http:\/\/www.technischeunie.com",
    "MIGX_id": "140",
    "latlong": {
      "street": "",
      "housenumber": "",
      "zipcode": "",
      "city": "",
      "state": "",
      "country": "",
      "latitude": "51.9277733",
      "longitude": "4.4173301"
    }
  },
  {
    "company": "Technische Unie",
    "address": "Conradweg 30",
    "address_2": "",
    "zipcode": "2031 CM",
    "city": "HAARLEM",
    "country": "NL",
    "phone": "235123123",
    "website": "http:\/\/www.technischeunie.com",
    "MIGX_id": "141",
    "latlong": {
      "street": "",
      "housenumber": "",
      "zipcode": "",
      "city": "",
      "state": "",
      "country": "",
      "latitude": "52.3870056",
      "longitude": "4.6640737"
    }
  },
  {
    "company": "Technische Unie",
    "address": "Hudsondreef 32",
    "address_2": "",
    "zipcode": "3565 AV",
    "city": "UTRECHT",
    "country": "NL",
    "phone": "302631631",
    "website": "http:\/\/www.technischeunie.com",
    "MIGX_id": "142",
    "latlong": {
      "street": "",
      "housenumber": "",
      "zipcode": "",
      "city": "",
      "state": "",
      "country": "",
      "latitude": "52.1280717",
      "longitude": "5.0846357"
    }
  },
  {
    "company": "Technische Unie",
    "address": "Tweede Bokslootweg 10-12",
    "address_2": "",
    "zipcode": "7821 AS",
    "city": "EMMEN",
    "country": "NL",
    "phone": "591657657",
    "website": "http:\/\/www.technischeunie.com",
    "MIGX_id": "143",
    "latlong": {
      "street": "",
      "housenumber": "",
      "zipcode": "",
      "city": "",
      "state": "",
      "country": "",
      "latitude": "52.7745444",
      "longitude": "6.9127957"
    }
  },
  {
    "company": "Technische Unie",
    "address": "Cobolweg 5",
    "address_2": "",
    "zipcode": "3821 BJ",
    "city": "AMERSFOORT",
    "country": "NL",
    "phone": "334535251",
    "website": "http:\/\/www.technischeunie.com",
    "MIGX_id": "144",
    "latlong": {
      "street": "",
      "housenumber": "",
      "zipcode": "",
      "city": "",
      "state": "",
      "country": "",
      "latitude": "52.1754304",
      "longitude": "5.4167392"
    }
  },
  {
    "company": "Technische Unie",
    "address": "Nieuwe Havenweg 43",
    "address_2": "",
    "zipcode": "1216 BK",
    "city": "HILVERSUM",
    "country": "NL",
    "phone": "356557755",
    "website": "http:\/\/www.technischeunie.com",
    "MIGX_id": "145",
    "latlong": {
      "street": "",
      "housenumber": "",
      "zipcode": "",
      "city": "",
      "state": "",
      "country": "",
      "latitude": "52.2239402",
      "longitude": "5.1440846"
    }
  },
  {
    "company": "Technische Unie",
    "address": "Sleperweg 39",
    "address_2": "",
    "zipcode": "6222 NK",
    "city": "MAASTRICHT",
    "country": "NL",
    "phone": "433526565",
    "website": "http:\/\/www.technischeunie.com",
    "MIGX_id": "146",
    "latlong": {
      "street": "",
      "housenumber": "",
      "zipcode": "",
      "city": "",
      "state": "",
      "country": "",
      "latitude": "50.8781015",
      "longitude": "5.7212676"
    }
  },
  {
    "company": "Technische Unie",
    "address": "Ravensburgstraat 2",
    "address_2": "",
    "zipcode": "8028 PZ",
    "city": "ZWOLLE",
    "country": "NL",
    "phone": "384258425",
    "website": "http:\/\/www.technischeunie.com",
    "MIGX_id": "147",
    "latlong": {
      "street": "",
      "housenumber": "",
      "zipcode": "",
      "city": "",
      "state": "",
      "country": "",
      "latitude": "52.540044",
      "longitude": "6.1744883"
    }
  },
  {
    "company": "Technische Unie",
    "address": "Jeverweg 13",
    "address_2": "",
    "zipcode": "9723 JE",
    "city": "GRONINGEN",
    "country": "NL",
    "phone": "505900100",
    "website": "http:\/\/www.technischeunie.com",
    "MIGX_id": "148",
    "latlong": {
      "street": "",
      "housenumber": "",
      "zipcode": "",
      "city": "",
      "state": "",
      "country": "",
      "latitude": "53.2143442",
      "longitude": "6.6159194"
    }
  },
  {
    "company": "Technische Unie",
    "address": "Vlamoven 33",
    "address_2": "",
    "zipcode": "6826 TM",
    "city": "ARNHEM",
    "country": "NL",
    "phone": "263650465",
    "website": "http:\/\/www.technischeunie.com",
    "MIGX_id": "149",
    "latlong": {
      "street": "",
      "housenumber": "",
      "zipcode": "",
      "city": "",
      "state": "",
      "country": "",
      "latitude": "51.9754293",
      "longitude": "5.9576364"
    }
  },
  {
    "company": "Technische Unie",
    "address": "Mercuriusstraat 1",
    "address_2": "",
    "zipcode": "6541 BM",
    "city": "NIJMEGEN",
    "country": "NL",
    "phone": "243725566",
    "website": "http:\/\/www.technischeunie.com",
    "MIGX_id": "150",
    "latlong": {
      "street": "",
      "housenumber": "",
      "zipcode": "",
      "city": "",
      "state": "",
      "country": "",
      "latitude": "51.8514815",
      "longitude": "5.8370341"
    }
  },
  {
    "company": "Technische Unie",
    "address": "Ambachtsweg 12",
    "address_2": "",
    "zipcode": "5627 BZ",
    "city": "EINDHOVEN",
    "country": "NL",
    "phone": "402640640",
    "website": "http:\/\/www.technischeunie.com",
    "MIGX_id": "151",
    "latlong": {
      "street": "",
      "housenumber": "",
      "zipcode": "",
      "city": "",
      "state": "",
      "country": "",
      "latitude": "51.4800335",
      "longitude": "5.4388259"
    }
  },
  {
    "company": "Technische Unie",
    "address": "Arnesteinweg 65",
    "address_2": "",
    "zipcode": "4338 PD",
    "city": "MIDDELBURG",
    "country": "NL",
    "phone": "118657257",
    "website": "http:\/\/www.technischeunie.com",
    "MIGX_id": "152",
    "latlong": {
      "street": "",
      "housenumber": "",
      "zipcode": "",
      "city": "",
      "state": "",
      "country": "",
      "latitude": "51.4990335",
      "longitude": "3.6460676"
    }
  },
  {
    "company": "Technische Unie",
    "address": "Het Sterrenbeeld 20",
    "address_2": "",
    "zipcode": "5215 ML",
    "city": "'s-HERTOGENBOSCH",
    "country": "NL",
    "phone": "736873687",
    "website": "http:\/\/www.technischeunie.com",
    "MIGX_id": "154",
    "latlong": {
      "street": "",
      "housenumber": "",
      "zipcode": "",
      "city": "",
      "state": "",
      "country": "",
      "latitude": "51.6868904",
      "longitude": "5.3574409"
    }
  },
  {
    "company": "Technische Unie",
    "address": "Rivium Oostlaan 51-59",
    "address_2": "",
    "zipcode": "2909 LL",
    "city": "CAPELLE AAN DEN IJSSEL",
    "country": "NL",
    "phone": "102667166",
    "website": "http:\/\/www.technischeunie.com",
    "MIGX_id": "155",
    "latlong": {
      "street": "",
      "housenumber": "",
      "zipcode": "",
      "city": "",
      "state": "",
      "country": "",
      "latitude": "51.9114582",
      "longitude": "4.5480962"
    }
  },
  {
    "company": "Technische Unie",
    "address": "H.J.E. Wenckebachweg 171",
    "address_2": "",
    "zipcode": "1096 AM",
    "city": "AMSTERDAM WATERGRAAFSMEER",
    "country": "NL",
    "phone": "205608500",
    "website": "http:\/\/www.technischeunie.com",
    "MIGX_id": "156",
    "latlong": {
      "street": "",
      "housenumber": "",
      "zipcode": "",
      "city": "",
      "state": "",
      "country": "",
      "latitude": "52.3365368",
      "longitude": "4.9352383"
    }
  },
  {
    "company": "Technische Unie",
    "address": "Dr. A. Philipsweg 3",
    "address_2": "",
    "zipcode": "5026 RK",
    "city": "TILBURG",
    "country": "NL",
    "phone": "135946666",
    "website": "http:\/\/www.technischeunie.com",
    "MIGX_id": "157",
    "latlong": {
      "street": "",
      "housenumber": "",
      "zipcode": "",
      "city": "",
      "state": "",
      "country": "",
      "latitude": "51.543056",
      "longitude": "5.0617901"
    }
  },
  {
    "company": "Technische Unie",
    "address": "Schootense Loop 8",
    "address_2": "",
    "zipcode": "5708 HX",
    "city": "HELMOND",
    "country": "NL",
    "phone": "492506506",
    "website": "http:\/\/www.technischeunie.com",
    "MIGX_id": "158",
    "latlong": {
      "street": "",
      "housenumber": "",
      "zipcode": "",
      "city": "",
      "state": "",
      "country": "",
      "latitude": "51.4782557",
      "longitude": "5.627277"
    }
  },
  {
    "company": "Technische Unie",
    "address": "Gerrit Kiststraat 23",
    "address_2": "",
    "zipcode": "1506 SZ",
    "city": "ZAANSTAD",
    "country": "NL",
    "phone": "756590590",
    "website": "http:\/\/www.technischeunie.com",
    "MIGX_id": "159",
    "latlong": {
      "street": "",
      "housenumber": "",
      "zipcode": "",
      "city": "",
      "state": "",
      "country": "",
      "latitude": "52.421504",
      "longitude": "4.8254545"
    }
  },
  {
    "company": "Technische Unie",
    "address": "Azi\u00ebweg 13",
    "address_2": "",
    "zipcode": "9407 TC",
    "city": "ASSEN",
    "country": "NL",
    "phone": "505900170",
    "website": "http:\/\/www.technischeunie.com",
    "MIGX_id": "160",
    "latlong": {
      "street": "",
      "housenumber": "",
      "zipcode": "",
      "city": "",
      "state": "",
      "country": "",
      "latitude": "53.0242773",
      "longitude": "6.5710906"
    }
  },
  {
    "company": "Technische Unie",
    "address": "Dynamostraat 5",
    "address_2": "",
    "zipcode": "1014 BN",
    "city": "AMSTERDAM SLOTERDIJK",
    "country": "NL",
    "phone": "205812121",
    "website": "http:\/\/www.technischeunie.com",
    "MIGX_id": "161",
    "latlong": {
      "street": "",
      "housenumber": "",
      "zipcode": "",
      "city": "",
      "state": "",
      "country": "",
      "latitude": "52.3974092",
      "longitude": "4.8509138"
    }
  },
  {
    "company": "Technische Unie",
    "address": "Argon 31",
    "address_2": "",
    "zipcode": "4751 XC",
    "city": "OUD GASTEL",
    "country": "NL",
    "phone": "165510123",
    "website": "http:\/\/www.technischeunie.com",
    "MIGX_id": "162",
    "latlong": {
      "street": "",
      "housenumber": "",
      "zipcode": "",
      "city": "",
      "state": "",
      "country": "",
      "latitude": "51.5645323",
      "longitude": "4.4639967"
    }
  },
  {
    "company": "Technische Unie",
    "address": "Koningsbeltweg 51",
    "address_2": "",
    "zipcode": "1329 AE",
    "city": "ALMERE",
    "country": "NL",
    "phone": "365452386",
    "website": "http:\/\/www.technischeunie.com",
    "MIGX_id": "163",
    "latlong": {
      "street": "",
      "housenumber": "",
      "zipcode": "",
      "city": "",
      "state": "",
      "country": "",
      "latitude": "52.3719053",
      "longitude": "5.2766489"
    }
  },
  {
    "company": "Technische Unie",
    "address": "Hazenweg 40",
    "address_2": "",
    "zipcode": "7556 BM",
    "city": "HENGELO",
    "country": "NL",
    "phone": "742435334",
    "website": "http:\/\/www.technischeunie.com",
    "MIGX_id": "164",
    "latlong": {
      "street": "",
      "housenumber": "",
      "zipcode": "",
      "city": "",
      "state": "",
      "country": "",
      "latitude": "52.2865948",
      "longitude": "6.7781099"
    }
  },
  {
    "company": "Tibas b.v.",
    "address": "Wethouder Venteweg 171",
    "address_2": "",
    "zipcode": "2805 JN",
    "city": "GOUDA",
    "country": "NL",
    "phone": "0182 51 11 17",
    "website": "http:\/\/www.tibas-openhaarden.nl",
    "MIGX_id": "165",
    "latlong": {
      "street": "",
      "housenumber": "",
      "zipcode": "",
      "city": "",
      "state": "",
      "country": "",
      "latitude": "52.0252954",
      "longitude": "4.7204352"
    }
  },
  {
    "company": "UwKachel.nl",
    "address": "Westeinde 231a",
    "address_2": "",
    "zipcode": "7671 ER",
    "city": "VRIEZENVEEN",
    "country": "NL",
    "phone": "0546 56 12 04",
    "website": "http:\/\/www.uwkachel.nl",
    "MIGX_id": "166",
    "latlong": {
      "street": "",
      "housenumber": "",
      "zipcode": "",
      "city": "",
      "state": "",
      "country": "",
      "latitude": "52.4087976",
      "longitude": "6.6159817"
    }
  },
  {
    "company": "Van Alphen openhaarden b.v.",
    "address": "Hillegondastraat 17a",
    "address_2": "",
    "zipcode": "3051 PA",
    "city": "ROTTERDAM",
    "country": "NL",
    "phone": "010 41 85 04 7",
    "website": "http:\/\/www.vanalphenopenhaarden.nl",
    "MIGX_id": "168",
    "latlong": {
      "street": "",
      "housenumber": "",
      "zipcode": "",
      "city": "",
      "state": "",
      "country": "",
      "latitude": "51.9456948",
      "longitude": "4.4848109"
    }
  },
  {
    "company": "Van Kessel Exclusief Bouwbedrijf V.O.F.",
    "address": "Bedafseweg 14",
    "address_2": "",
    "zipcode": "5406 TM",
    "city": "UDEN",
    "country": "NL",
    "phone": "0413 26 23 77",
    "website": "http:\/\/www.vankesselkachels",
    "MIGX_id": "169",
    "latlong": {
      "street": "",
      "housenumber": "",
      "zipcode": "",
      "city": "",
      "state": "",
      "country": "",
      "latitude": "51.6608667",
      "longitude": "5.5741196"
    }
  },
  {
    "company": "Van Roon and Zoon",
    "address": "Hofweg 10",
    "address_2": "",
    "zipcode": "3208 LE",
    "city": "SPIJKENISSE",
    "country": "NL",
    "phone": "0181 63 07 26",
    "website": "http:\/\/www.vanroonenzoon.nl",
    "MIGX_id": "170",
    "latlong": {
      "street": "",
      "housenumber": "",
      "zipcode": "",
      "city": "",
      "state": "",
      "country": "",
      "latitude": "51.8559883",
      "longitude": "4.2974037"
    }
  },
  {
    "company": "Van Wijk Warmte bv",
    "address": "Noordeindseweg 24",
    "address_2": "",
    "zipcode": "2651 CW",
    "city": "BERKEL EN RODENRIJS",
    "country": "NL",
    "phone": "010 51 15 127",
    "website": "http:\/\/www.vanwijkwarmte.nl",
    "MIGX_id": "171",
    "latlong": {
      "street": "",
      "housenumber": "",
      "zipcode": "",
      "city": "",
      "state": "",
      "country": "",
      "latitude": "51.9955071",
      "longitude": "4.4785957"
    }
  },
  {
    "MIGX_id": "172",
    "company": "Vihamij Handel B.V.",
    "address": "Driepoortenweg 16",
    "address_2": "",
    "zipcode": "6827 BR",
    "city": "ARNHEM",
    "country": "NL",
    "phone": "026 3629068",
    "website": "webshop.vihamij.nl\/vestigingen",
    "latlong": {
      "street": "",
      "housenumber": "",
      "zipcode": "",
      "city": "",
      "state": "",
      "country": "",
      "latitude": "51.9747704",
      "longitude": "5.9393917"
    }
  },
  {
    "company": "Voermans-Cillekens",
    "address": "Kloosterstraat 120",
    "address_2": "",
    "zipcode": "6093 CZ",
    "city": "HEYTHUYSEN",
    "country": "NL",
    "phone": "0475 49 33 68",
    "website": "http:\/\/www.voermans-cillekens.nl",
    "MIGX_id": "173",
    "latlong": {
      "street": "",
      "housenumber": "",
      "zipcode": "",
      "city": "",
      "state": "",
      "country": "",
      "latitude": "51.2502315",
      "longitude": "5.8822346"
    }
  },
  {
    "company": "Vromans Haarden and Kachels",
    "address": "Industrieweg 5",
    "address_2": "",
    "zipcode": "5688 DP",
    "city": "OIRSCHOT",
    "country": "NL",
    "phone": "0499 574808",
    "website": "http:\/\/www.vromanshaarden.nl",
    "MIGX_id": "174",
    "latlong": {
      "street": "",
      "housenumber": "",
      "zipcode": "",
      "city": "",
      "state": "",
      "country": "",
      "latitude": "51.5026107",
      "longitude": "5.3227358"
    }
  },
  {
    "MIGX_id": "175",
    "company": "Vuurslag Haarden",
    "address": "Ype Smidswei 4",
    "address_2": "",
    "zipcode": "9298RZ",
    "city": "KOLLUMERZWAAG",
    "country": "NL",
    "phone": "0511 227575",
    "website": "http:\/\/www.vuurslaghaarden.nl",
    "latlong": {
      "street": "Ype Smidswei",
      "housenumber": "4",
      "zipcode": "9298RZ",
      "city": "",
      "state": "",
      "country": "",
      "latitude": "53.2616459",
      "longitude": "6.0902781"
    },
    "marker": ""
  },
  {
    "company": "Wiersma Warmteservice",
    "address": "Smydingheweg 35",
    "address_2": "",
    "zipcode": "9923 PB",
    "city": "GARSTHUIZEN",
    "country": "NL",
    "phone": "06 54 33 69 54",
    "website": "",
    "MIGX_id": "176",
    "latlong": {
      "street": "",
      "housenumber": "",
      "zipcode": "",
      "city": "",
      "state": "",
      "country": "",
      "latitude": "53.3710487",
      "longitude": "6.7154572"
    }
  },
  {
    "company": "Zantingh B.V.",
    "address": "Aarbergerweg 9",
    "address_2": "",
    "zipcode": "1435 CA",
    "city": "RIJSENHOUT",
    "country": "NL",
    "phone": "0297 21 91 00",
    "website": "http:\/\/www.zantingh.com",
    "MIGX_id": "177",
    "latlong": {
      "street": "",
      "housenumber": "",
      "zipcode": "",
      "city": "",
      "state": "",
      "country": "",
      "latitude": "52.267761",
      "longitude": "4.7316447"
    }
  },
  {
    "company": "Eco Heating Zeeland",
    "address": "Ondernemersweg 51",
    "address_2": "",
    "zipcode": "4501 WD",
    "city": "OOSTBURG",
    "country": "NL ",
    "phone": "0117 745009",
    "website": "http:\/\/www.ecoheatingzeeland.nl",
    "MIGX_id": "178",
    "latlong": {
      "street": "",
      "housenumber": "",
      "zipcode": "",
      "city": "",
      "state": "",
      "country": "",
      "latitude": "51.3344498",
      "longitude": "3.5036464"
    }
  },
  {
    "company": "Norsk Varme Innovasjon as",
    "address": "Solaveien 88",
    "address_2": "Rogaland",
    "zipcode": "4316",
    "city": "SANDNES",
    "country": "NO",
    "phone": "+47 400 304 33",
    "website": "http:\/\/www.peismesteren.no",
    "MIGX_id": "179",
    "latlong": {
      "street": "",
      "housenumber": "",
      "zipcode": "",
      "city": "",
      "state": "",
      "country": "",
      "latitude": "58.8564693",
      "longitude": "5.7142208"
    }
  },
  {
    "company": "RPT Energi and Varme AS",
    "address": "Orstadveien 114",
    "address_2": "",
    "zipcode": "4353",
    "city": "KLEPP STASJON",
    "country": "NO",
    "phone": "+47 517 888 90",
    "website": "http:\/\/www.rptgass.no",
    "MIGX_id": "180",
    "latlong": {
      "street": "",
      "housenumber": "",
      "zipcode": "",
      "city": "",
      "state": "",
      "country": "",
      "latitude": "58.7899209",
      "longitude": "5.706206"
    }
  },
  {
    "company": "SGP Armatec AS",
    "address": "Solbraveien 61",
    "address_2": "",
    "zipcode": "1383",
    "city": "ASKER",
    "country": "NO",
    "phone": "+47 675 221 21",
    "website": "http:\/\/www.sgp.no",
    "MIGX_id": "181",
    "latlong": {
      "street": "",
      "housenumber": "",
      "zipcode": "",
      "city": "",
      "state": "",
      "country": "",
      "latitude": "59.8303673",
      "longitude": "10.4088345"
    }
  },
  {
    "MIGX_id": "182",
    "company": "Clima Solutions Ltd.",
    "address": "23B Saint Stephens Ave, Parnell",
    "address_2": "",
    "zipcode": "1052",
    "city": "AUCKLAND",
    "country": "NZ",
    "phone": "+64 933 612 78",
    "website": "http:\/\/www.clima.co.nz",
    "latlong": {
      "street": "Saint Stephens ave.",
      "housenumber": "23b",
      "zipcode": "",
      "city": "Auckland",
      "state": "",
      "country": "New Zealand",
      "latitude": "-36.8584052",
      "longitude": "174.7852511"
    }
  },
  {
    "company": "Seminee Expert SRL",
    "address": "Street Dr. Petre Gadescu 65, Sector 5",
    "address_2": "",
    "zipcode": "51076",
    "city": "BUKAREST",
    "country": "RO",
    "phone": "+40 769 608 801",
    "website": "http:\/\/www.semineepegaz.ro",
    "MIGX_id": "183",
    "latlong": {
      "street": "",
      "housenumber": "",
      "zipcode": "",
      "city": "",
      "state": "",
      "country": "",
      "latitude": "44.4362104",
      "longitude": "26.1184117"
    }
  },
  {
    "company": "Skorstens Teknik and Energi AB",
    "address": "B\u00e4rstav\u00e4gen 40",
    "address_2": "",
    "zipcode": "663 41",
    "city": "HAMMAR\u00d6",
    "country": "SE",
    "phone": "+46 767 879 447",
    "website": "http:\/\/www.skorstensteknik.se",
    "MIGX_id": "184",
    "latlong": {
      "street": "",
      "housenumber": "",
      "zipcode": "",
      "city": "",
      "state": "",
      "country": "",
      "latitude": "59.335772",
      "longitude": "13.5384145"
    }
  },
  {
    "MIGX_id": "186",
    "company": "Schiedel Ontop GmbH",
    "address": "Albert-Einstein-Stra\u00dfe 8",
    "address_2": "",
    "zipcode": "51674",
    "city": "Wiehl",
    "country": "DE",
    "phone": "+49 2261 708 0 ",
    "website": "https:\/\/metaloterm.com\/de\/",
    "latlong": {
      "street": "Albert-Einstein-Stra\u00dfe",
      "housenumber": "8",
      "zipcode": "51674",
      "city": "Wiehl",
      "state": "",
      "country": "Germany",
      "latitude": "50.9699014",
      "longitude": "7.53950169999996"
    }
  },
  {
    "MIGX_id": "188",
    "company": "Schiedel Metaloterm Sp. z o.o.",
    "address": "ul. Hallera 75",
    "address_2": "",
    "zipcode": "98-100",
    "city": "Wiewi\u00f3rczyn",
    "country": "PL",
    "phone": "+48 43 67 63 36 6",
    "website": "https:\/\/metaloterm.com\/pl\/",
    "latlong": {
      "street": "ul. Hallera",
      "housenumber": "75",
      "zipcode": "98-100",
      "city": "Wiewi\u00f3rczyn",
      "state": "",
      "country": "Poland",
      "latitude": "51.607754",
      "longitude": "19.137919900000043"
    }
  },
  {
    "MIGX_id": "189",
    "company": "\u041a\u0430\u043c\u0438\u043d\u044b & \u043f\u0435\u0447\u0438 FLAMBIS",
    "address": "Leninskiy Prospekt, 66",
    "address_2": "\u042e\u0433\u043e-\u0417\u0430\u043f\u0430\u0434\u043d\u044b\u0439 \u0410\u041e",
    "zipcode": "119296",
    "city": "Moskva",
    "country": "RU",
    "phone": "+7 (495) 661-41-59",
    "website": "http:\/\/www.flambis.su",
    "latlong": {
      "street": "Leninskiy Prospekt",
      "housenumber": "66",
      "zipcode": "119296",
      "city": "Moskva",
      "state": "",
      "country": "",
      "latitude": "55.6914722",
      "longitude": "37.54963709999993"
    }
  },
  {
    "MIGX_id": "190",
    "company": "CEC Yapi Ith Ihr Paz Ve Tic ltd. Decofire",
    "address": "Huzur Mah Arkan Cad No. 25",
    "address_2": "4. Levent Sisli",
    "zipcode": "34396",
    "city": "INSTANBUL",
    "country": "TR",
    "phone": "+90 212 347 16 55",
    "website": "http:\/\/www.decofire.com",
    "latlong": {
      "street": "Huzur Mah Arkan Cad ",
      "housenumber": "25",
      "zipcode": "34396",
      "city": "Instanbul",
      "state": "",
      "country": "Turkije",
      "latitude": "41.097109",
      "longitude": "29.00489600000003"
    }
  },
  {
    "MIGX_id": "191",
    "company": "Technische Unie",
    "address": "ABC Westland 261",
    "address_2": "",
    "zipcode": "2685 DC",
    "city": "POELDIJK",
    "country": "NL",
    "phone": "+31 703594359",
    "website": "https:\/\/www.technischeunie.com\/",
    "latlong": {
      "street": "ABC Westland 261",
      "housenumber": "",
      "zipcode": "2685 DC",
      "city": "",
      "state": "",
      "country": "",
      "latitude": "52.0341733",
      "longitude": "4.231587999999988"
    }
  },
  {
    "MIGX_id": "192",
    "company": "CVI Texel",
    "address": "Spinbaan 8",
    "address_2": "",
    "zipcode": "1791 MC",
    "city": "DEN BURG",
    "country": "NL",
    "phone": "+31 222 313 703",
    "website": "www.cvi-texel.nl",
    "latlong": {
      "street": "Spinbaan",
      "housenumber": "8",
      "zipcode": "1791 MC",
      "city": "DEN BURG",
      "state": "",
      "country": "",
      "latitude": "53.0610791",
      "longitude": "4.799185599999999"
    }
  },
  {
    "MIGX_id": "193",
    "company": "Vuurmeesters",
    "address": "Grootestraat 48",
    "address_2": "",
    "zipcode": "7478 AD",
    "city": "Diepenheim",
    "country": "NL",
    "phone": "",
    "website": "https:\/\/www.vuurmeesters.nl\/",
    "latlong": {
      "street": "Grootestraat",
      "housenumber": "48",
      "zipcode": "",
      "city": "Diepenheim",
      "state": "",
      "country": "",
      "latitude": "52.2001741",
      "longitude": "6.5514777"
    }
  },
  {
    "MIGX_id": "194",
    "company": "SIA Mesako ",
    "address": "Vien\u012bbas gatve 87a",
    "address_2": "",
    "zipcode": "LV\u20131004",
    "city": "R\u012bga",
    "country": "LV",
    "phone": "+371 67605225",
    "website": "http:\/\/www.mesako.lv\/lv\/kontakti\/",
    "latlong": {
      "street": "Vien\u012bbas gatve ",
      "housenumber": "87a",
      "zipcode": "LV\u20131004",
      "city": "R\u012bga",
      "state": "",
      "country": "Latvia",
      "latitude": "56.9142591",
      "longitude": "24.0858797"
    }
  },
  {
    "MIGX_id": "196",
    "company": "HaardenExpert BV",
    "address": "Jutestraat 6A",
    "address_2": "",
    "zipcode": "7461TR",
    "city": "RIJSSEN",
    "country": "NL",
    "phone": "0548-211550",
    "website": "https:\/\/www.haardenexpert.nl\/",
    "latlong": {
      "street": "Jutestraat ",
      "housenumber": "6A",
      "zipcode": "7461TR",
      "city": "RIJSSEN",
      "state": "",
      "country": "Nederland",
      "latitude": "52.3148434",
      "longitude": "6.5054646"
    }
  },
  {
    "MIGX_id": "197",
    "company": "J.D. Schoorsteentechniek",
    "address": "Heideweg 15",
    "address_2": "",
    "zipcode": "9591VT",
    "city": "Onstwedde",
    "country": "NL",
    "phone": "0031618968238",
    "website": "https:\/\/www.klusschoorsteenveegbedrijfjd.nl\/",
    "latlong": {
      "street": "Heideweg",
      "housenumber": "15",
      "zipcode": "9591VT",
      "city": "Onstwedde",
      "state": "",
      "country": "Nederland",
      "latitude": "53.0592941",
      "longitude": "7.040192900000001"
    }
  },
  {
    "MIGX_id": "198",
    "company": "SCHIEDEL SRL",
    "address": "Via Montegrappa 19\/21 ",
    "address_2": "",
    "zipcode": "20060 ",
    "city": "Truccazzano",
    "country": "IT",
    "phone": "+39 02 950731",
    "website": "https:\/\/www.schiedel.com\/it",
    "latlong": {
      "street": "Via Montegrappa ",
      "housenumber": "21",
      "zipcode": "20060",
      "city": "Truccazzano",
      "state": "",
      "country": "IT",
      "latitude": "45.479389",
      "longitude": "9.438538"
    }
  },
  {
    "MIGX_id": "199",
    "company": "Ventura Holland",
    "address": "De Weegschaal 11",
    "address_2": "",
    "zipcode": "5215 MN",
    "city": "'s-Hertogenbosch",
    "country": "NL",
    "phone": "+31 73 690 0162",
    "website": "https:\/\/venturaholland.nl\/",
    "latlong": {
      "street": "De Weegschaal ",
      "housenumber": "11",
      "zipcode": "5215 MN",
      "city": "'s-Hertogenbosch",
      "state": "Noord-Brabant",
      "country": "Netherlands",
      "latitude": "51.6889021",
      "longitude": "5.3545099"
    }
  },
  {
    "MIGX_id": "200",
    "company": "B P G van Westen",
    "address": "Stadsambachtsweg 4 ",
    "address_2": "",
    "zipcode": " 4332 SE ",
    "city": "Middelburg",
    "country": "NL",
    "phone": "0118 633 511",
    "website": "https:\/\/www.bouwpartner.com\/vanwesten",
    "latlong": {
      "street": "Stadsambachtsweg",
      "housenumber": "4",
      "zipcode": "4332 SE",
      "city": "Middelburg",
      "state": "",
      "country": "Nederland",
      "latitude": "51.50166211614598",
      "longitude": "3.6295505232787972"
    },
    "marker": ""
  },
  {
    "MIGX_id": "201",
    "company": "GR Energies",
    "address": "",
    "address_2": "",
    "zipcode": "22230 ",
    "city": " Merdrignac",
    "country": "FR",
    "phone": " +33 2 96 26 50 50",
    "website": "https:\/\/grenergies.com\/entreprise\/",
    "latlong": {
      "street": "Rue du Capitaine le Grand",
      "housenumber": "",
      "zipcode": "22230",
      "city": "Merdrignac",
      "state": "",
      "country": "France",
      "latitude": "48.18901417353977",
      "longitude": "-2.402334317999273"
    },
    "marker": ""
  },
  {
    "MIGX_id": "202",
    "company": "Poudenas Ramonage",
    "address": "105 Rte du M\u00f4le",
    "address_2": "",
    "zipcode": "74250 ",
    "city": "Fillinges",
    "country": "FR",
    "phone": " +33 4 50 31 14 71",
    "website": "https:\/\/www.google.com\/search?q=Poudenas+Ramonage+105+Rte+du+M%C3%B4le+74250+Fillinges+FR&rlz=1C1GCEU_nlNL838NL838&sourceid=chrome&ie=UTF-8",
    "latlong": {
      "street": " Rte du M\u00f4le",
      "housenumber": "105",
      "zipcode": "",
      "city": "Fillinges",
      "state": "",
      "country": "France",
      "latitude": "46.15332",
      "longitude": "6.344688000000001"
    },
    "marker": ""
  },
  {
    "MIGX_id": "203",
    "company": "Vuur ",
    "address": "Voorstraat  30",
    "address_2": "",
    "zipcode": "4697EL",
    "city": "Sint-Annaland",
    "country": "NL",
    "phone": "06 51690802",
    "website": "",
    "latlong": {
      "street": "Voorstraat",
      "housenumber": "30",
      "zipcode": "4697EL",
      "city": "Sint Annaland",
      "state": "",
      "country": "NL",
      "latitude": "51.6009956",
      "longitude": "4.1038822"
    },
    "marker": ""
  },
  {
    "MIGX_id": "204",
    "company": "Wessels ",
    "address": "Handelsstraat  28",
    "address_2": "",
    "zipcode": "6135 KL",
    "city": "Sittard",
    "country": "NL",
    "phone": " 046 451 2981",
    "website": "www.wesselsmeubelenkachels.nl",
    "latlong": {
      "street": "Handelsstraat",
      "housenumber": "28",
      "zipcode": "6135KL",
      "city": "Sittard",
      "state": "",
      "country": "NL",
      "latitude": "51.00237060000001",
      "longitude": "5.8469864"
    },
    "marker": ""
  },
  {
    "MIGX_id": "205",
    "company": "Warmte Wereld",
    "address": "Brink 4",
    "address_2": "",
    "zipcode": "9415PB ",
    "city": "Hijken",
    "country": "NL",
    "phone": "0593 52 67 15",
    "website": "https:\/\/warmtewereld.nl\/",
    "latlong": {
      "street": "Brink ",
      "housenumber": "4",
      "zipcode": "9415PB ",
      "city": "Hijken",
      "state": "",
      "country": "NL",
      "latitude": "52.8959028",
      "longitude": "6.5004162"
    },
    "marker": ""
  },
  {
    "MIGX_id": "206",
    "company": "Van de Merwe - Sfeermakers en Wooncomfort",
    "address": "Burgemeester Jaslaan 35",
    "address_2": "",
    "zipcode": "3319 AB",
    "city": "Dordrecht ",
    "country": "NL",
    "phone": "078 616 0364",
    "website": "http:\/\/vdmerwe.nl\/",
    "latlong": {
      "street": "Burgemeester Jaslaan ",
      "housenumber": "35",
      "zipcode": "3319 AB",
      "city": "Dordrecht ",
      "state": "",
      "country": "NL",
      "latitude": "51.7905503",
      "longitude": "4.6919775"
    },
    "marker": ""
  },
  {
    "MIGX_id": "207",
    "company": "Chemin\u00e9es Toffin",
    "address": "100 av de la lib\u00e9ration",
    "address_2": "",
    "zipcode": "95220 ",
    "city": "Herblay sur Seine",
    "country": "FR",
    "phone": "01 39 78 47 55",
    "website": "https:\/\/toffinchauffages.com\/",
    "latlong": {
      "street": "Avenue de la Liberation",
      "housenumber": "100",
      "zipcode": "95220 ",
      "city": "Herblay sur Seine",
      "state": "",
      "country": "France",
      "latitude": "49.0041512",
      "longitude": "2.1927835"
    },
    "marker": ""
  },
  {
    "MIGX_id": "208",
    "company": "TOFFIN CHAUFFAGES",
    "address": "11 rue Louis Jouvet",
    "address_2": "",
    "zipcode": "60230",
    "city": "Chambly",
    "country": "FR",
    "phone": " 01 30 34 86 00",
    "website": "https:\/\/toffinchauffages.com\/",
    "latlong": {
      "street": "rue Louis Jouvet",
      "housenumber": "11",
      "zipcode": "60230",
      "city": "Chambly",
      "state": "",
      "country": "France",
      "latitude": "49.1608611",
      "longitude": "2.257617"
    },
    "marker": ""
  },
  {
    "MIGX_id": "209",
    "company": "Entreprise Toffin",
    "address": "9 Rue de Pontoise",
    "address_2": "",
    "zipcode": "95810",
    "city": "Vallangoujard",
    "country": "FR",
    "phone": "",
    "website": "",
    "latlong": {
      "street": "Rue de Pontoise",
      "housenumber": "9",
      "zipcode": "95810",
      "city": "Vallangoujard",
      "state": "",
      "country": "France",
      "latitude": "49.1375521",
      "longitude": "2.1130654"
    },
    "marker": ""
  },
  {
    "MIGX_id": "210",
    "company": "NOVASANIT THONON",
    "address": "128 BLD DE LA CORNICHE",
    "address_2": "",
    "zipcode": "74200",
    "city": "Thonon-les-Bains",
    "country": "FR",
    "phone": "04 50 26 14 44",
    "website": "https:\/\/www.novasanit.fr\/",
    "latlong": {
      "street": "BLD DE LA CORNICHE",
      "housenumber": "128",
      "zipcode": "74200",
      "city": "Thonon-les-Bains",
      "state": "",
      "country": "France",
      "latitude": "46.3622661",
      "longitude": "6.453147899999999"
    },
    "marker": ""
  },
  {
    "MIGX_id": "211",
    "company": "Cleaning & Service Friesland",
    "address": "Houtmolestreekje 8",
    "address_2": "",
    "zipcode": "8711 AV",
    "city": "Workum",
    "country": "NL",
    "phone": "06 29 36 26 33",
    "website": "https:\/\/cleaningservicefriesland.nl\/",
    "latlong": {
      "street": "Houtmolestreekje ",
      "housenumber": "8",
      "zipcode": "8711 AV",
      "city": "Workum",
      "state": "",
      "country": "Nederland",
      "latitude": "52.9819726",
      "longitude": "5.4500392"
    },
    "marker": ""
  },
  {
    "MIGX_id": "212",
    "company": "E4 Power ",
    "address": "1441 SW 30th Avenue",
    "address_2": "STE 2 - Florida office",
    "zipcode": "33069",
    "city": "Pompano Beach",
    "country": "United States of America",
    "phone": "",
    "website": "www.e4powerllc.com",
    "latlong": {
      "street": "1441 SW 30th Avenue STE 2",
      "housenumber": "",
      "zipcode": "33069",
      "city": "Pompano Beach",
      "state": "Florida",
      "country": "United States of America",
      "latitude": "26.2117304",
      "longitude": "-80.1646185"
    },
    "marker": ""
  }
]
  